[
  {
    "province": "北京市",
    "city": "北京市",
    "county": "北京市",
    "longitude": "116.4",
    "latitude": "39.9",
    "zipCode": "100000"
  },
  {
    "province": "北京市",
    "city": "北京市",
    "county": "东城区",
    "longitude": "116.42",
    "latitude": "39.93",
    "zipCode": "100010"
  },
  {
    "province": "北京市",
    "city": "北京市",
    "county": "西城区",
    "longitude": "116.37",
    "latitude": "39.92",
    "zipCode": "100032"
  },
  {
    "province": "北京市",
    "city": "北京市",
    "county": "崇文区",
    "longitude": "116.43",
    "latitude": "39.88",
    "zipCode": "100000"
  },
  {
    "province": "北京市",
    "city": "北京市",
    "county": "宣武区",
    "longitude": "116.35",
    "latitude": "39.87",
    "zipCode": "100000"
  },
  {
    "province": "北京市",
    "city": "北京市",
    "county": "朝阳区",
    "longitude": "116.43",
    "latitude": "39.92",
    "zipCode": "100020"
  },
  {
    "province": "北京市",
    "city": "北京市",
    "county": "丰台区",
    "longitude": "116.28",
    "latitude": "39.85",
    "zipCode": "100071"
  },
  {
    "province": "北京市",
    "city": "北京市",
    "county": "石景山区",
    "longitude": "116.22",
    "latitude": "39.9",
    "zipCode": "100043"
  },
  {
    "province": "北京市",
    "city": "北京市",
    "county": "海淀区",
    "longitude": "116.3",
    "latitude": "39.95",
    "zipCode": "100089"
  },
  {
    "province": "北京市",
    "city": "北京市",
    "county": "门头沟区",
    "longitude": "116.1",
    "latitude": "39.93",
    "zipCode": "102300"
  },
  {
    "province": "北京市",
    "city": "北京市",
    "county": "房山区",
    "longitude": "116.13",
    "latitude": "39.75",
    "zipCode": "102488"
  },
  {
    "province": "北京市",
    "city": "北京市",
    "county": "通州区",
    "longitude": "116.65",
    "latitude": "39.92",
    "zipCode": "101149"
  },
  {
    "province": "北京市",
    "city": "北京市",
    "county": "顺义区",
    "longitude": "116.65",
    "latitude": "40.13",
    "zipCode": "101300"
  },
  {
    "province": "北京市",
    "city": "北京市",
    "county": "昌平区",
    "longitude": "116.23",
    "latitude": "40.22",
    "zipCode": "102200"
  },
  {
    "province": "北京市",
    "city": "北京市",
    "county": "大兴区",
    "longitude": "116.33",
    "latitude": "39.73",
    "zipCode": "102600"
  },
  {
    "province": "北京市",
    "city": "北京市",
    "county": "怀柔区",
    "longitude": "116.63",
    "latitude": "40.32",
    "zipCode": "101400"
  },
  {
    "province": "北京市",
    "city": "北京市",
    "county": "平谷区",
    "longitude": "117.12",
    "latitude": "40.13",
    "zipCode": "101200"
  },
  {
    "province": "北京市",
    "city": "北京市",
    "county": "密云县",
    "longitude": "116.83",
    "latitude": "40.37",
    "zipCode": "101500"
  },
  {
    "province": "北京市",
    "city": "北京市",
    "county": "延庆县",
    "longitude": "115.97",
    "latitude": "40.45",
    "zipCode": "102100"
  },
  {
    "province": "天津市",
    "city": "天津市",
    "county": "天津市",
    "longitude": "117.2",
    "latitude": "39.12",
    "zipCode": "300000"
  },
  {
    "province": "天津市",
    "city": "天津市",
    "county": "和平区",
    "longitude": "117.2",
    "latitude": "39.12",
    "zipCode": "300041"
  },
  {
    "province": "天津市",
    "city": "天津市",
    "county": "河东区",
    "longitude": "117.22",
    "latitude": "39.12",
    "zipCode": "300171"
  },
  {
    "province": "天津市",
    "city": "天津市",
    "county": "河西区",
    "longitude": "117.22",
    "latitude": "39.12",
    "zipCode": "300202"
  },
  {
    "province": "天津市",
    "city": "天津市",
    "county": "南开区",
    "longitude": "117.15",
    "latitude": "39.13",
    "zipCode": "300110"
  },
  {
    "province": "天津市",
    "city": "天津市",
    "county": "河北区",
    "longitude": "117.18",
    "latitude": "39.15",
    "zipCode": "300143"
  },
  {
    "province": "天津市",
    "city": "天津市",
    "county": "红桥区",
    "longitude": "117.15",
    "latitude": "39.17",
    "zipCode": "300131"
  },
  {
    "province": "天津市",
    "city": "天津市",
    "county": "塘沽区",
    "longitude": "117.65",
    "latitude": "39.02",
    "zipCode": "300450"
  },
  {
    "province": "天津市",
    "city": "天津市",
    "county": "汉沽区",
    "longitude": "117.8",
    "latitude": "39.25",
    "zipCode": "300480"
  },
  {
    "province": "天津市",
    "city": "天津市",
    "county": "大港区",
    "longitude": "117.45",
    "latitude": "38.83",
    "zipCode": "300000"
  },
  {
    "province": "天津市",
    "city": "天津市",
    "county": "东丽区",
    "longitude": "117.3",
    "latitude": "39.08",
    "zipCode": "300300"
  },
  {
    "province": "天津市",
    "city": "天津市",
    "county": "西青区",
    "longitude": "117.0",
    "latitude": "39.13",
    "zipCode": "300380"
  },
  {
    "province": "天津市",
    "city": "天津市",
    "county": "津南区",
    "longitude": "117.38",
    "latitude": "38.98",
    "zipCode": "300350"
  },
  {
    "province": "天津市",
    "city": "天津市",
    "county": "北辰区",
    "longitude": "117.13",
    "latitude": "39.22",
    "zipCode": "300400"
  },
  {
    "province": "天津市",
    "city": "天津市",
    "county": "武清区",
    "longitude": "117.03",
    "latitude": "39.38",
    "zipCode": "301700"
  },
  {
    "province": "天津市",
    "city": "天津市",
    "county": "宝坻区",
    "longitude": "117.3",
    "latitude": "39.72",
    "zipCode": "301800"
  },
  {
    "province": "天津市",
    "city": "天津市",
    "county": "滨海新区",
    "longitude": "117.68",
    "latitude": "39.03",
    "zipCode": "300450"
  },
  {
    "province": "天津市",
    "city": "天津市",
    "county": "宁河县",
    "longitude": "117.82",
    "latitude": "39.33",
    "zipCode": "301500"
  },
  {
    "province": "天津市",
    "city": "天津市",
    "county": "静海县",
    "longitude": "116.92",
    "latitude": "38.93",
    "zipCode": "301600"
  },
  {
    "province": "天津市",
    "city": "天津市",
    "county": "蓟县",
    "longitude": "117.4",
    "latitude": "40.05",
    "zipCode": "301900"
  },
  {
    "province": "河北省",
    "city": "石家庄市",
    "county": "石家庄市",
    "longitude": "114.52",
    "latitude": "38.05",
    "zipCode": "050000"
  },
  {
    "province": "河北省",
    "city": "石家庄市",
    "county": "长安区",
    "longitude": "114.52",
    "latitude": "38.05",
    "zipCode": "050000"
  },
  {
    "province": "河北省",
    "city": "石家庄市",
    "county": "桥东区",
    "longitude": "114.5",
    "latitude": "38.05",
    "zipCode": "050000"
  },
  {
    "province": "河北省",
    "city": "石家庄市",
    "county": "桥东区",
    "longitude": "114.9",
    "latitude": "40.78",
    "zipCode": "050000"
  },
  {
    "province": "河北省",
    "city": "石家庄市",
    "county": "桥东区",
    "longitude": "114.5",
    "latitude": "37.07",
    "zipCode": "050000"
  },
  {
    "province": "河北省",
    "city": "石家庄市",
    "county": "桥西区",
    "longitude": "114.47",
    "latitude": "37.05",
    "zipCode": "050051"
  },
  {
    "province": "河北省",
    "city": "石家庄市",
    "county": "桥西区",
    "longitude": "114.87",
    "latitude": "40.83",
    "zipCode": "050051"
  },
  {
    "province": "河北省",
    "city": "石家庄市",
    "county": "桥西区",
    "longitude": "114.47",
    "latitude": "38.03",
    "zipCode": "050051"
  },
  {
    "province": "河北省",
    "city": "石家庄市",
    "county": "新华区",
    "longitude": "114.47",
    "latitude": "38.05",
    "zipCode": "453000"
  },
  {
    "province": "河北省",
    "city": "石家庄市",
    "county": "新华区",
    "longitude": "116.87",
    "latitude": "38.32",
    "zipCode": "453000"
  },
  {
    "province": "河北省",
    "city": "石家庄市",
    "county": "井陉矿区",
    "longitude": "114.05",
    "latitude": "38.08",
    "zipCode": "050100"
  },
  {
    "province": "河北省",
    "city": "石家庄市",
    "county": "裕华区",
    "longitude": "114.52",
    "latitude": "38.02",
    "zipCode": "050011"
  },
  {
    "province": "河北省",
    "city": "石家庄市",
    "county": "井陉县",
    "longitude": "114.13",
    "latitude": "38.03",
    "zipCode": "050300"
  },
  {
    "province": "河北省",
    "city": "石家庄市",
    "county": "正定县",
    "longitude": "114.57",
    "latitude": "38.15",
    "zipCode": "050800"
  },
  {
    "province": "河北省",
    "city": "石家庄市",
    "county": "栾城县",
    "longitude": "114.65",
    "latitude": "37.88",
    "zipCode": "051430"
  },
  {
    "province": "河北省",
    "city": "石家庄市",
    "county": "行唐县",
    "longitude": "114.55",
    "latitude": "38.43",
    "zipCode": "050600"
  },
  {
    "province": "河北省",
    "city": "石家庄市",
    "county": "灵寿县",
    "longitude": "114.37",
    "latitude": "38.3",
    "zipCode": "050500"
  },
  {
    "province": "河北省",
    "city": "石家庄市",
    "county": "高邑县",
    "longitude": "114.6",
    "latitude": "37.6",
    "zipCode": "051330"
  },
  {
    "province": "河北省",
    "city": "石家庄市",
    "county": "深泽县",
    "longitude": "115.2",
    "latitude": "38.18",
    "zipCode": "052560"
  },
  {
    "province": "河北省",
    "city": "石家庄市",
    "county": "赞皇县",
    "longitude": "114.38",
    "latitude": "37.67",
    "zipCode": "051230"
  },
  {
    "province": "河北省",
    "city": "石家庄市",
    "county": "无极县",
    "longitude": "114.97",
    "latitude": "38.18",
    "zipCode": "052460"
  },
  {
    "province": "河北省",
    "city": "石家庄市",
    "county": "平山县",
    "longitude": "114.2",
    "latitude": "38.25",
    "zipCode": "050400"
  },
  {
    "province": "河北省",
    "city": "石家庄市",
    "county": "元氏县",
    "longitude": "114.52",
    "latitude": "37.75",
    "zipCode": "051130"
  },
  {
    "province": "河北省",
    "city": "石家庄市",
    "county": "赵县",
    "longitude": "114.77",
    "latitude": "37.75",
    "zipCode": "051530"
  },
  {
    "province": "河北省",
    "city": "石家庄市",
    "county": "辛集市",
    "longitude": "115.22",
    "latitude": "37.92",
    "zipCode": "052360"
  },
  {
    "province": "河北省",
    "city": "石家庄市",
    "county": "藁城市",
    "longitude": "114.83",
    "latitude": "38.03",
    "zipCode": "052160"
  },
  {
    "province": "河北省",
    "city": "石家庄市",
    "county": "晋州市",
    "longitude": "115.03",
    "latitude": "38.03",
    "zipCode": "052260"
  },
  {
    "province": "河北省",
    "city": "石家庄市",
    "county": "新乐市",
    "longitude": "114.68",
    "latitude": "38.35",
    "zipCode": "050700"
  },
  {
    "province": "河北省",
    "city": "石家庄市",
    "county": "鹿泉市",
    "longitude": "114.3",
    "latitude": "38.08",
    "zipCode": "050200"
  },
  {
    "province": "河北省",
    "city": "唐山市",
    "county": "唐山市",
    "longitude": "118.2",
    "latitude": "39.63",
    "zipCode": "063000"
  },
  {
    "province": "河北省",
    "city": "唐山市",
    "county": "路南区",
    "longitude": "118.17",
    "latitude": "39.63",
    "zipCode": "063017"
  },
  {
    "province": "河北省",
    "city": "唐山市",
    "county": "路北区",
    "longitude": "118.22",
    "latitude": "39.63",
    "zipCode": "063000"
  },
  {
    "province": "河北省",
    "city": "唐山市",
    "county": "古冶区",
    "longitude": "118.42",
    "latitude": "39.73",
    "zipCode": "063100"
  },
  {
    "province": "河北省",
    "city": "唐山市",
    "county": "开平区",
    "longitude": "118.27",
    "latitude": "39.68",
    "zipCode": "063021"
  },
  {
    "province": "河北省",
    "city": "唐山市",
    "county": "丰南区",
    "longitude": "118.1",
    "latitude": "39.57",
    "zipCode": "063300"
  },
  {
    "province": "河北省",
    "city": "唐山市",
    "county": "丰润区",
    "longitude": "118.17",
    "latitude": "39.83",
    "zipCode": "064000"
  },
  {
    "province": "河北省",
    "city": "唐山市",
    "county": "滦县",
    "longitude": "118.7",
    "latitude": "39.75",
    "zipCode": "063700"
  },
  {
    "province": "河北省",
    "city": "唐山市",
    "county": "滦南县",
    "longitude": "118.68",
    "latitude": "39.5",
    "zipCode": "063500"
  },
  {
    "province": "河北省",
    "city": "唐山市",
    "county": "乐亭县",
    "longitude": "118.9",
    "latitude": "39.42",
    "zipCode": "063600"
  },
  {
    "province": "河北省",
    "city": "唐山市",
    "county": "迁西县",
    "longitude": "118.32",
    "latitude": "40.15",
    "zipCode": "064300"
  },
  {
    "province": "河北省",
    "city": "唐山市",
    "county": "玉田县",
    "longitude": "117.73",
    "latitude": "39.88",
    "zipCode": "064100"
  },
  {
    "province": "河北省",
    "city": "唐山市",
    "county": "唐海县",
    "longitude": "118.45",
    "latitude": "39.27",
    "zipCode": "063200"
  },
  {
    "province": "河北省",
    "city": "唐山市",
    "county": "遵化市",
    "longitude": "117.95",
    "latitude": "40.18",
    "zipCode": "064200"
  },
  {
    "province": "河北省",
    "city": "唐山市",
    "county": "迁安市",
    "longitude": "118.7",
    "latitude": "40.02",
    "zipCode": "064400"
  },
  {
    "province": "河北省",
    "city": "秦皇岛市",
    "county": "秦皇岛市",
    "longitude": "119.6",
    "latitude": "39.93",
    "zipCode": "066000"
  },
  {
    "province": "河北省",
    "city": "秦皇岛市",
    "county": "海港区",
    "longitude": "119.6",
    "latitude": "39.93",
    "zipCode": "066000"
  },
  {
    "province": "河北省",
    "city": "秦皇岛市",
    "county": "山海关区",
    "longitude": "119.77",
    "latitude": "40.0",
    "zipCode": "066200"
  },
  {
    "province": "河北省",
    "city": "秦皇岛市",
    "county": "北戴河区",
    "longitude": "119.48",
    "latitude": "39.83",
    "zipCode": "066100"
  },
  {
    "province": "河北省",
    "city": "秦皇岛市",
    "county": "青龙满族自治县",
    "longitude": "118.95",
    "latitude": "40.4",
    "zipCode": "066500"
  },
  {
    "province": "河北省",
    "city": "秦皇岛市",
    "county": "昌黎县",
    "longitude": "119.17",
    "latitude": "39.7",
    "zipCode": "066600"
  },
  {
    "province": "河北省",
    "city": "秦皇岛市",
    "county": "抚宁县",
    "longitude": "119.23",
    "latitude": "39.88",
    "zipCode": "066300"
  },
  {
    "province": "河北省",
    "city": "秦皇岛市",
    "county": "卢龙县",
    "longitude": "118.87",
    "latitude": "39.88",
    "zipCode": "066400"
  },
  {
    "province": "河北省",
    "city": "邯郸市",
    "county": "邯郸市",
    "longitude": "114.48",
    "latitude": "36.62",
    "zipCode": "056000"
  },
  {
    "province": "河北省",
    "city": "邯郸市",
    "county": "邯山区",
    "longitude": "114.48",
    "latitude": "36.6",
    "zipCode": "056001"
  },
  {
    "province": "河北省",
    "city": "邯郸市",
    "county": "丛台区",
    "longitude": "114.48",
    "latitude": "36.63",
    "zipCode": "056004"
  },
  {
    "province": "河北省",
    "city": "邯郸市",
    "county": "复兴区",
    "longitude": "114.45",
    "latitude": "36.63",
    "zipCode": "056002"
  },
  {
    "province": "河北省",
    "city": "邯郸市",
    "county": "峰峰矿区",
    "longitude": "114.2",
    "latitude": "36.42",
    "zipCode": "056200"
  },
  {
    "province": "河北省",
    "city": "邯郸市",
    "county": "邯郸县",
    "longitude": "114.53",
    "latitude": "36.6",
    "zipCode": "056100"
  },
  {
    "province": "河北省",
    "city": "邯郸市",
    "county": "临漳县",
    "longitude": "114.62",
    "latitude": "36.35",
    "zipCode": "056600"
  },
  {
    "province": "河北省",
    "city": "邯郸市",
    "county": "成安县",
    "longitude": "114.68",
    "latitude": "36.43",
    "zipCode": "056700"
  },
  {
    "province": "河北省",
    "city": "邯郸市",
    "county": "大名县",
    "longitude": "115.15",
    "latitude": "36.28",
    "zipCode": "056900"
  },
  {
    "province": "河北省",
    "city": "邯郸市",
    "county": "涉县",
    "longitude": "113.67",
    "latitude": "36.57",
    "zipCode": "056400"
  },
  {
    "province": "河北省",
    "city": "邯郸市",
    "county": "磁县",
    "longitude": "114.37",
    "latitude": "36.35",
    "zipCode": "056500"
  },
  {
    "province": "河北省",
    "city": "邯郸市",
    "county": "肥乡县",
    "longitude": "114.8",
    "latitude": "36.55",
    "zipCode": "057550"
  },
  {
    "province": "河北省",
    "city": "邯郸市",
    "county": "永年县",
    "longitude": "114.48",
    "latitude": "36.78",
    "zipCode": "057150"
  },
  {
    "province": "河北省",
    "city": "邯郸市",
    "county": "邱县",
    "longitude": "115.17",
    "latitude": "36.82",
    "zipCode": "057450"
  },
  {
    "province": "河北省",
    "city": "邯郸市",
    "county": "鸡泽县",
    "longitude": "114.87",
    "latitude": "36.92",
    "zipCode": "057350"
  },
  {
    "province": "河北省",
    "city": "邯郸市",
    "county": "广平县",
    "longitude": "114.93",
    "latitude": "36.48",
    "zipCode": "057650"
  },
  {
    "province": "河北省",
    "city": "邯郸市",
    "county": "馆陶县",
    "longitude": "115.3",
    "latitude": "36.53",
    "zipCode": "057750"
  },
  {
    "province": "河北省",
    "city": "邯郸市",
    "county": "魏县",
    "longitude": "114.93",
    "latitude": "36.37",
    "zipCode": "056800"
  },
  {
    "province": "河北省",
    "city": "邯郸市",
    "county": "曲周县",
    "longitude": "114.95",
    "latitude": "36.78",
    "zipCode": "057250"
  },
  {
    "province": "河北省",
    "city": "邯郸市",
    "county": "武安市",
    "longitude": "114.2",
    "latitude": "36.7",
    "zipCode": "056300"
  },
  {
    "province": "河北省",
    "city": "邢台市",
    "county": "邢台市",
    "longitude": "114.48",
    "latitude": "37.07",
    "zipCode": "054000"
  },
  {
    "province": "河北省",
    "city": "邢台市",
    "county": "桥东区",
    "longitude": "114.5",
    "latitude": "38.05",
    "zipCode": "054000"
  },
  {
    "province": "河北省",
    "city": "邢台市",
    "county": "桥东区",
    "longitude": "114.9",
    "latitude": "40.78",
    "zipCode": "054000"
  },
  {
    "province": "河北省",
    "city": "邢台市",
    "county": "桥东区",
    "longitude": "114.5",
    "latitude": "37.07",
    "zipCode": "054000"
  },
  {
    "province": "河北省",
    "city": "邢台市",
    "county": "桥西区",
    "longitude": "114.87",
    "latitude": "40.83",
    "zipCode": "054000"
  },
  {
    "province": "河北省",
    "city": "邢台市",
    "county": "桥西区",
    "longitude": "114.47",
    "latitude": "38.03",
    "zipCode": "054000"
  },
  {
    "province": "河北省",
    "city": "邢台市",
    "county": "桥西区",
    "longitude": "114.47",
    "latitude": "37.05",
    "zipCode": "054000"
  },
  {
    "province": "河北省",
    "city": "邢台市",
    "county": "邢台县",
    "longitude": "114.5",
    "latitude": "37.08",
    "zipCode": "054000"
  },
  {
    "province": "河北省",
    "city": "邢台市",
    "county": "临城县",
    "longitude": "114.5",
    "latitude": "37.43",
    "zipCode": "054300"
  },
  {
    "province": "河北省",
    "city": "邢台市",
    "county": "内丘县",
    "longitude": "114.52",
    "latitude": "37.3",
    "zipCode": "054200"
  },
  {
    "province": "河北省",
    "city": "邢台市",
    "county": "柏乡县",
    "longitude": "114.68",
    "latitude": "37.5",
    "zipCode": "055450"
  },
  {
    "province": "河北省",
    "city": "邢台市",
    "county": "隆尧县",
    "longitude": "114.77",
    "latitude": "37.35",
    "zipCode": "055350"
  },
  {
    "province": "河北省",
    "city": "邢台市",
    "county": "任县",
    "longitude": "114.68",
    "latitude": "37.13",
    "zipCode": "055151"
  },
  {
    "province": "河北省",
    "city": "邢台市",
    "county": "南和县",
    "longitude": "114.68",
    "latitude": "37.0",
    "zipCode": "054400"
  },
  {
    "province": "河北省",
    "city": "邢台市",
    "county": "宁晋县",
    "longitude": "114.92",
    "latitude": "37.62",
    "zipCode": "055550"
  },
  {
    "province": "河北省",
    "city": "邢台市",
    "county": "巨鹿县",
    "longitude": "115.03",
    "latitude": "37.22",
    "zipCode": "055250"
  },
  {
    "province": "河北省",
    "city": "邢台市",
    "county": "新河县",
    "longitude": "115.25",
    "latitude": "37.53",
    "zipCode": "055650"
  },
  {
    "province": "河北省",
    "city": "邢台市",
    "county": "广宗县",
    "longitude": "115.15",
    "latitude": "37.07",
    "zipCode": "054600"
  },
  {
    "province": "河北省",
    "city": "邢台市",
    "county": "平乡县",
    "longitude": "115.03",
    "latitude": "37.07",
    "zipCode": "054500"
  },
  {
    "province": "河北省",
    "city": "邢台市",
    "county": "威县",
    "longitude": "115.25",
    "latitude": "36.98",
    "zipCode": "054700"
  },
  {
    "province": "河北省",
    "city": "邢台市",
    "county": "清河县",
    "longitude": "115.67",
    "latitude": "37.07",
    "zipCode": "054800"
  },
  {
    "province": "河北省",
    "city": "邢台市",
    "county": "临西县",
    "longitude": "115.5",
    "latitude": "36.85",
    "zipCode": "054900"
  },
  {
    "province": "河北省",
    "city": "邢台市",
    "county": "南宫市",
    "longitude": "115.38",
    "latitude": "37.35",
    "zipCode": "055750"
  },
  {
    "province": "河北省",
    "city": "邢台市",
    "county": "沙河市",
    "longitude": "114.5",
    "latitude": "36.85",
    "zipCode": "054100"
  },
  {
    "province": "河北省",
    "city": "保定市",
    "county": "保定市",
    "longitude": "115.47",
    "latitude": "38.87",
    "zipCode": "071000"
  },
  {
    "province": "河北省",
    "city": "保定市",
    "county": "新市区",
    "longitude": "115.45",
    "latitude": "38.87",
    "zipCode": "071000"
  },
  {
    "province": "河北省",
    "city": "保定市",
    "county": "北市区",
    "longitude": "115.48",
    "latitude": "38.87",
    "zipCode": "071000"
  },
  {
    "province": "河北省",
    "city": "保定市",
    "county": "南市区",
    "longitude": "115.5",
    "latitude": "38.85",
    "zipCode": "071000"
  },
  {
    "province": "河北省",
    "city": "保定市",
    "county": "满城县",
    "longitude": "115.32",
    "latitude": "38.95",
    "zipCode": "072150"
  },
  {
    "province": "河北省",
    "city": "保定市",
    "county": "清苑县",
    "longitude": "115.48",
    "latitude": "38.77",
    "zipCode": "071100"
  },
  {
    "province": "河北省",
    "city": "保定市",
    "county": "涞水县",
    "longitude": "115.72",
    "latitude": "39.4",
    "zipCode": "074100"
  },
  {
    "province": "河北省",
    "city": "保定市",
    "county": "阜平县",
    "longitude": "114.18",
    "latitude": "38.85",
    "zipCode": "073200"
  },
  {
    "province": "河北省",
    "city": "保定市",
    "county": "徐水县",
    "longitude": "115.65",
    "latitude": "39.02",
    "zipCode": "072550"
  },
  {
    "province": "河北省",
    "city": "保定市",
    "county": "定兴县",
    "longitude": "115.77",
    "latitude": "39.27",
    "zipCode": "072650"
  },
  {
    "province": "河北省",
    "city": "保定市",
    "county": "唐县",
    "longitude": "114.98",
    "latitude": "38.75",
    "zipCode": "072350"
  },
  {
    "province": "河北省",
    "city": "保定市",
    "county": "高阳县",
    "longitude": "115.78",
    "latitude": "38.68",
    "zipCode": "071500"
  },
  {
    "province": "河北省",
    "city": "保定市",
    "county": "容城县",
    "longitude": "115.87",
    "latitude": "39.05",
    "zipCode": "071700"
  },
  {
    "province": "河北省",
    "city": "保定市",
    "county": "涞源县",
    "longitude": "114.68",
    "latitude": "39.35",
    "zipCode": "074300"
  },
  {
    "province": "河北省",
    "city": "保定市",
    "county": "望都县",
    "longitude": "115.15",
    "latitude": "38.72",
    "zipCode": "072450"
  },
  {
    "province": "河北省",
    "city": "保定市",
    "county": "安新县",
    "longitude": "115.93",
    "latitude": "38.92",
    "zipCode": "071600"
  },
  {
    "province": "河北省",
    "city": "保定市",
    "county": "易县",
    "longitude": "115.5",
    "latitude": "39.35",
    "zipCode": "074200"
  },
  {
    "province": "河北省",
    "city": "保定市",
    "county": "曲阳县",
    "longitude": "114.7",
    "latitude": "38.62",
    "zipCode": "073100"
  },
  {
    "province": "河北省",
    "city": "保定市",
    "county": "蠡县",
    "longitude": "115.57",
    "latitude": "38.48",
    "zipCode": "071400"
  },
  {
    "province": "河北省",
    "city": "保定市",
    "county": "顺平县",
    "longitude": "115.13",
    "latitude": "38.83",
    "zipCode": "072250"
  },
  {
    "province": "河北省",
    "city": "保定市",
    "county": "博野县",
    "longitude": "115.47",
    "latitude": "38.45",
    "zipCode": "071300"
  },
  {
    "province": "河北省",
    "city": "保定市",
    "county": "雄县",
    "longitude": "116.1",
    "latitude": "38.98",
    "zipCode": "071800"
  },
  {
    "province": "河北省",
    "city": "保定市",
    "county": "涿州市",
    "longitude": "115.97",
    "latitude": "39.48",
    "zipCode": "072750"
  },
  {
    "province": "河北省",
    "city": "保定市",
    "county": "定州市",
    "longitude": "114.97",
    "latitude": "38.52",
    "zipCode": "073000"
  },
  {
    "province": "河北省",
    "city": "保定市",
    "county": "安国市",
    "longitude": "115.32",
    "latitude": "38.42",
    "zipCode": "071200"
  },
  {
    "province": "河北省",
    "city": "保定市",
    "county": "高碑店市",
    "longitude": "115.85",
    "latitude": "39.33",
    "zipCode": "074000"
  },
  {
    "province": "河北省",
    "city": "张家口市",
    "county": "张家口市",
    "longitude": "114.88",
    "latitude": "40.82",
    "zipCode": "075000"
  },
  {
    "province": "河北省",
    "city": "张家口市",
    "county": "桥东区",
    "longitude": "114.5",
    "latitude": "38.05",
    "zipCode": "075000"
  },
  {
    "province": "河北省",
    "city": "张家口市",
    "county": "桥东区",
    "longitude": "114.9",
    "latitude": "40.78",
    "zipCode": "075000"
  },
  {
    "province": "河北省",
    "city": "张家口市",
    "county": "桥东区",
    "longitude": "114.5",
    "latitude": "37.07",
    "zipCode": "075000"
  },
  {
    "province": "河北省",
    "city": "张家口市",
    "county": "桥西区",
    "longitude": "114.87",
    "latitude": "40.83",
    "zipCode": "075061"
  },
  {
    "province": "河北省",
    "city": "张家口市",
    "county": "桥西区",
    "longitude": "114.47",
    "latitude": "38.03",
    "zipCode": "075061"
  },
  {
    "province": "河北省",
    "city": "张家口市",
    "county": "桥西区",
    "longitude": "114.47",
    "latitude": "37.05",
    "zipCode": "075061"
  },
  {
    "province": "河北省",
    "city": "张家口市",
    "county": "宣化区",
    "longitude": "115.05",
    "latitude": "40.6",
    "zipCode": "075100"
  },
  {
    "province": "河北省",
    "city": "张家口市",
    "county": "下花园区",
    "longitude": "115.27",
    "latitude": "40.48",
    "zipCode": "075300"
  },
  {
    "province": "河北省",
    "city": "张家口市",
    "county": "宣化县",
    "longitude": "115.02",
    "latitude": "40.55",
    "zipCode": "075100"
  },
  {
    "province": "河北省",
    "city": "张家口市",
    "county": "张北县",
    "longitude": "114.7",
    "latitude": "41.15",
    "zipCode": "076450"
  },
  {
    "province": "河北省",
    "city": "张家口市",
    "county": "康保县",
    "longitude": "114.62",
    "latitude": "41.85",
    "zipCode": "076650"
  },
  {
    "province": "河北省",
    "city": "张家口市",
    "county": "沽源县",
    "longitude": "115.7",
    "latitude": "41.67",
    "zipCode": "076550"
  },
  {
    "province": "河北省",
    "city": "张家口市",
    "county": "尚义县",
    "longitude": "113.97",
    "latitude": "41.08",
    "zipCode": "076750"
  },
  {
    "province": "河北省",
    "city": "张家口市",
    "county": "蔚县",
    "longitude": "114.57",
    "latitude": "39.85",
    "zipCode": "075700"
  },
  {
    "province": "河北省",
    "city": "张家口市",
    "county": "阳原县",
    "longitude": "114.17",
    "latitude": "40.12",
    "zipCode": "075800"
  },
  {
    "province": "河北省",
    "city": "张家口市",
    "county": "怀安县",
    "longitude": "114.42",
    "latitude": "40.67",
    "zipCode": "076150"
  },
  {
    "province": "河北省",
    "city": "张家口市",
    "county": "万全县",
    "longitude": "114.72",
    "latitude": "40.75",
    "zipCode": "076250"
  },
  {
    "province": "河北省",
    "city": "张家口市",
    "county": "怀来县",
    "longitude": "115.52",
    "latitude": "40.4",
    "zipCode": "075400"
  },
  {
    "province": "河北省",
    "city": "张家口市",
    "county": "涿鹿县",
    "longitude": "115.22",
    "latitude": "40.38",
    "zipCode": "075600"
  },
  {
    "province": "河北省",
    "city": "张家口市",
    "county": "赤城县",
    "longitude": "115.83",
    "latitude": "40.92",
    "zipCode": "075500"
  },
  {
    "province": "河北省",
    "city": "张家口市",
    "county": "崇礼县",
    "longitude": "115.27",
    "latitude": "40.97",
    "zipCode": "076350"
  },
  {
    "province": "河北省",
    "city": "承德市",
    "county": "承德市",
    "longitude": "117.93",
    "latitude": "40.97",
    "zipCode": "067000"
  },
  {
    "province": "河北省",
    "city": "承德市",
    "county": "双桥区",
    "longitude": "117.93",
    "latitude": "40.97",
    "zipCode": "067000"
  },
  {
    "province": "河北省",
    "city": "承德市",
    "county": "双滦区",
    "longitude": "117.78",
    "latitude": "40.95",
    "zipCode": "067000"
  },
  {
    "province": "河北省",
    "city": "承德市",
    "county": "鹰手营子矿区",
    "longitude": "117.65",
    "latitude": "40.55",
    "zipCode": "067200"
  },
  {
    "province": "河北省",
    "city": "承德市",
    "county": "承德县",
    "longitude": "118.17",
    "latitude": "40.77",
    "zipCode": "067400"
  },
  {
    "province": "河北省",
    "city": "承德市",
    "county": "兴隆县",
    "longitude": "117.52",
    "latitude": "40.43",
    "zipCode": "067300"
  },
  {
    "province": "河北省",
    "city": "承德市",
    "county": "平泉县",
    "longitude": "118.68",
    "latitude": "41.0",
    "zipCode": "067500"
  },
  {
    "province": "河北省",
    "city": "承德市",
    "county": "滦平县",
    "longitude": "117.33",
    "latitude": "40.93",
    "zipCode": "068250"
  },
  {
    "province": "河北省",
    "city": "承德市",
    "county": "隆化县",
    "longitude": "117.72",
    "latitude": "41.32",
    "zipCode": "068150"
  },
  {
    "province": "河北省",
    "city": "承德市",
    "county": "丰宁满族自治县",
    "longitude": "116.65",
    "latitude": "41.2",
    "zipCode": "068350"
  },
  {
    "province": "河北省",
    "city": "承德市",
    "county": "宽城满族自治县",
    "longitude": "118.48",
    "latitude": "40.6",
    "zipCode": "067600"
  },
  {
    "province": "河北省",
    "city": "承德市",
    "county": "围场满族蒙古族自治县",
    "longitude": "117.75",
    "latitude": "41.93",
    "zipCode": "068450"
  },
  {
    "province": "河北省",
    "city": "沧州市",
    "county": "沧州市",
    "longitude": "116.83",
    "latitude": "38.3",
    "zipCode": "061000"
  },
  {
    "province": "河北省",
    "city": "沧州市",
    "county": "新华区",
    "longitude": "114.47",
    "latitude": "38.05",
    "zipCode": "061000"
  },
  {
    "province": "河北省",
    "city": "沧州市",
    "county": "新华区",
    "longitude": "116.87",
    "latitude": "38.32",
    "zipCode": "061000"
  },
  {
    "province": "河北省",
    "city": "沧州市",
    "county": "运河区",
    "longitude": "116.85",
    "latitude": "38.32",
    "zipCode": "061000"
  },
  {
    "province": "河北省",
    "city": "沧州市",
    "county": "沧县",
    "longitude": "116.87",
    "latitude": "38.3",
    "zipCode": "061000"
  },
  {
    "province": "河北省",
    "city": "沧州市",
    "county": "青县",
    "longitude": "116.82",
    "latitude": "38.58",
    "zipCode": "062650"
  },
  {
    "province": "河北省",
    "city": "沧州市",
    "county": "东光县",
    "longitude": "116.53",
    "latitude": "37.88",
    "zipCode": "061600"
  },
  {
    "province": "河北省",
    "city": "沧州市",
    "county": "海兴县",
    "longitude": "117.48",
    "latitude": "38.13",
    "zipCode": "061200"
  },
  {
    "province": "河北省",
    "city": "沧州市",
    "county": "盐山县",
    "longitude": "117.22",
    "latitude": "38.05",
    "zipCode": "061300"
  },
  {
    "province": "河北省",
    "city": "沧州市",
    "county": "肃宁县",
    "longitude": "115.83",
    "latitude": "38.43",
    "zipCode": "062350"
  },
  {
    "province": "河北省",
    "city": "沧州市",
    "county": "南皮县",
    "longitude": "116.7",
    "latitude": "38.03",
    "zipCode": "061500"
  },
  {
    "province": "河北省",
    "city": "沧州市",
    "county": "吴桥县",
    "longitude": "116.38",
    "latitude": "37.62",
    "zipCode": "061800"
  },
  {
    "province": "河北省",
    "city": "沧州市",
    "county": "献县",
    "longitude": "116.12",
    "latitude": "38.18",
    "zipCode": "062250"
  },
  {
    "province": "河北省",
    "city": "沧州市",
    "county": "孟村回族自治县",
    "longitude": "117.1",
    "latitude": "38.07",
    "zipCode": "061400"
  },
  {
    "province": "河北省",
    "city": "沧州市",
    "county": "泊头市",
    "longitude": "116.57",
    "latitude": "38.07",
    "zipCode": "062150"
  },
  {
    "province": "河北省",
    "city": "沧州市",
    "county": "任丘市",
    "longitude": "116.1",
    "latitude": "38.72",
    "zipCode": "062550"
  },
  {
    "province": "河北省",
    "city": "沧州市",
    "county": "黄骅市",
    "longitude": "117.35",
    "latitude": "38.37",
    "zipCode": "061100"
  },
  {
    "province": "河北省",
    "city": "沧州市",
    "county": "河间市",
    "longitude": "116.08",
    "latitude": "38.43",
    "zipCode": "062450"
  },
  {
    "province": "河北省",
    "city": "廊坊市",
    "county": "廊坊市",
    "longitude": "116.7",
    "latitude": "39.52",
    "zipCode": "065000"
  },
  {
    "province": "河北省",
    "city": "廊坊市",
    "county": "安次区",
    "longitude": "116.68",
    "latitude": "39.52",
    "zipCode": "065000"
  },
  {
    "province": "河北省",
    "city": "廊坊市",
    "county": "广阳区",
    "longitude": "116.72",
    "latitude": "39.53",
    "zipCode": "065000"
  },
  {
    "province": "河北省",
    "city": "廊坊市",
    "county": "固安县",
    "longitude": "116.3",
    "latitude": "39.43",
    "zipCode": "065500"
  },
  {
    "province": "河北省",
    "city": "廊坊市",
    "county": "永清县",
    "longitude": "116.5",
    "latitude": "39.32",
    "zipCode": "065600"
  },
  {
    "province": "河北省",
    "city": "廊坊市",
    "county": "香河县",
    "longitude": "117.0",
    "latitude": "39.77",
    "zipCode": "065400"
  },
  {
    "province": "河北省",
    "city": "廊坊市",
    "county": "大城县",
    "longitude": "116.63",
    "latitude": "38.7",
    "zipCode": "065900"
  },
  {
    "province": "河北省",
    "city": "廊坊市",
    "county": "文安县",
    "longitude": "116.47",
    "latitude": "38.87",
    "zipCode": "065800"
  },
  {
    "province": "河北省",
    "city": "廊坊市",
    "county": "大厂回族自治县",
    "longitude": "116.98",
    "latitude": "39.88",
    "zipCode": "065300"
  },
  {
    "province": "河北省",
    "city": "廊坊市",
    "county": "霸州市",
    "longitude": "116.4",
    "latitude": "39.1",
    "zipCode": "065700"
  },
  {
    "province": "河北省",
    "city": "廊坊市",
    "county": "三河市",
    "longitude": "117.07",
    "latitude": "39.98",
    "zipCode": "065200"
  },
  {
    "province": "河北省",
    "city": "衡水市",
    "county": "衡水市",
    "longitude": "115.68",
    "latitude": "37.73",
    "zipCode": "053000"
  },
  {
    "province": "河北省",
    "city": "衡水市",
    "county": "桃城区",
    "longitude": "115.68",
    "latitude": "37.73",
    "zipCode": "053000"
  },
  {
    "province": "河北省",
    "city": "衡水市",
    "county": "枣强县",
    "longitude": "115.72",
    "latitude": "37.52",
    "zipCode": "053100"
  },
  {
    "province": "河北省",
    "city": "衡水市",
    "county": "武邑县",
    "longitude": "115.88",
    "latitude": "37.82",
    "zipCode": "053400"
  },
  {
    "province": "河北省",
    "city": "衡水市",
    "county": "武强县",
    "longitude": "115.98",
    "latitude": "38.03",
    "zipCode": "053300"
  },
  {
    "province": "河北省",
    "city": "衡水市",
    "county": "饶阳县",
    "longitude": "115.73",
    "latitude": "38.23",
    "zipCode": "053900"
  },
  {
    "province": "河北省",
    "city": "衡水市",
    "county": "安平县",
    "longitude": "115.52",
    "latitude": "38.23",
    "zipCode": "053600"
  },
  {
    "province": "河北省",
    "city": "衡水市",
    "county": "故城县",
    "longitude": "115.97",
    "latitude": "37.35",
    "zipCode": "253800"
  },
  {
    "province": "河北省",
    "city": "衡水市",
    "county": "景县",
    "longitude": "116.27",
    "latitude": "37.7",
    "zipCode": "053500"
  },
  {
    "province": "河北省",
    "city": "衡水市",
    "county": "阜城县",
    "longitude": "116.15",
    "latitude": "37.87",
    "zipCode": "053700"
  },
  {
    "province": "河北省",
    "city": "衡水市",
    "county": "冀州市",
    "longitude": "115.57",
    "latitude": "37.57",
    "zipCode": "053200"
  },
  {
    "province": "河北省",
    "city": "衡水市",
    "county": "深州市",
    "longitude": "115.55",
    "latitude": "38.02",
    "zipCode": "053800"
  },
  {
    "province": "山西省",
    "city": "太原市",
    "county": "太原市",
    "longitude": "112.55",
    "latitude": "37.87",
    "zipCode": "030000"
  },
  {
    "province": "山西省",
    "city": "太原市",
    "county": "小店区",
    "longitude": "112.57",
    "latitude": "37.73",
    "zipCode": "030000"
  },
  {
    "province": "山西省",
    "city": "太原市",
    "county": "迎泽区",
    "longitude": "112.57",
    "latitude": "37.87",
    "zipCode": "030000"
  },
  {
    "province": "山西省",
    "city": "太原市",
    "county": "杏花岭区",
    "longitude": "112.57",
    "latitude": "37.88",
    "zipCode": "030000"
  },
  {
    "province": "山西省",
    "city": "太原市",
    "county": "尖草坪区",
    "longitude": "112.48",
    "latitude": "37.93",
    "zipCode": "030000"
  },
  {
    "province": "山西省",
    "city": "太原市",
    "county": "万柏林区",
    "longitude": "112.52",
    "latitude": "37.87",
    "zipCode": "030000"
  },
  {
    "province": "山西省",
    "city": "太原市",
    "county": "晋源区",
    "longitude": "112.48",
    "latitude": "37.73",
    "zipCode": "030000"
  },
  {
    "province": "山西省",
    "city": "太原市",
    "county": "清徐县",
    "longitude": "112.35",
    "latitude": "37.6",
    "zipCode": "030400"
  },
  {
    "province": "山西省",
    "city": "太原市",
    "county": "阳曲县",
    "longitude": "112.67",
    "latitude": "38.07",
    "zipCode": "030100"
  },
  {
    "province": "山西省",
    "city": "太原市",
    "county": "娄烦县",
    "longitude": "111.78",
    "latitude": "38.07",
    "zipCode": "030300"
  },
  {
    "province": "山西省",
    "city": "太原市",
    "county": "古交市",
    "longitude": "112.17",
    "latitude": "37.92",
    "zipCode": "030200"
  },
  {
    "province": "山西省",
    "city": "大同市",
    "county": "大同市",
    "longitude": "113.3",
    "latitude": "40.08",
    "zipCode": "037000"
  },
  {
    "province": "山西省",
    "city": "大同市",
    "county": "城区",
    "longitude": "113.28",
    "latitude": "40.08",
    "zipCode": "037006"
  },
  {
    "province": "山西省",
    "city": "大同市",
    "county": "城区",
    "longitude": "113.6",
    "latitude": "37.85",
    "zipCode": "037006"
  },
  {
    "province": "山西省",
    "city": "大同市",
    "county": "城区",
    "longitude": "113.12",
    "latitude": "36.22",
    "zipCode": "037006"
  },
  {
    "province": "山西省",
    "city": "大同市",
    "county": "城区",
    "longitude": "112.83",
    "latitude": "35.5",
    "zipCode": "037006"
  },
  {
    "province": "山西省",
    "city": "大同市",
    "county": "矿区",
    "longitude": "113.17",
    "latitude": "40.03",
    "zipCode": "037001"
  },
  {
    "province": "山西省",
    "city": "大同市",
    "county": "矿区",
    "longitude": "113.57",
    "latitude": "37.87",
    "zipCode": "037001"
  },
  {
    "province": "山西省",
    "city": "大同市",
    "county": "南郊区",
    "longitude": "113.13",
    "latitude": "40.0",
    "zipCode": "037000"
  },
  {
    "province": "山西省",
    "city": "大同市",
    "county": "新荣区",
    "longitude": "113.15",
    "latitude": "40.27",
    "zipCode": "037002"
  },
  {
    "province": "山西省",
    "city": "大同市",
    "county": "阳高县",
    "longitude": "113.75",
    "latitude": "40.37",
    "zipCode": "038100"
  },
  {
    "province": "山西省",
    "city": "大同市",
    "county": "天镇县",
    "longitude": "114.08",
    "latitude": "40.42",
    "zipCode": "038200"
  },
  {
    "province": "山西省",
    "city": "大同市",
    "county": "广灵县",
    "longitude": "114.28",
    "latitude": "39.77",
    "zipCode": "037500"
  },
  {
    "province": "山西省",
    "city": "大同市",
    "county": "灵丘县",
    "longitude": "114.23",
    "latitude": "39.43",
    "zipCode": "034400"
  },
  {
    "province": "山西省",
    "city": "大同市",
    "county": "浑源县",
    "longitude": "113.68",
    "latitude": "39.7",
    "zipCode": "037400"
  },
  {
    "province": "山西省",
    "city": "大同市",
    "county": "左云县",
    "longitude": "112.7",
    "latitude": "40.0",
    "zipCode": "037100"
  },
  {
    "province": "山西省",
    "city": "大同市",
    "county": "大同县",
    "longitude": "113.6",
    "latitude": "40.03",
    "zipCode": "037300"
  },
  {
    "province": "山西省",
    "city": "阳泉市",
    "county": "阳泉市",
    "longitude": "113.57",
    "latitude": "37.85",
    "zipCode": "045000"
  },
  {
    "province": "山西省",
    "city": "阳泉市",
    "county": "城区",
    "longitude": "113.28",
    "latitude": "40.08",
    "zipCode": "045000"
  },
  {
    "province": "山西省",
    "city": "阳泉市",
    "county": "城区",
    "longitude": "113.6",
    "latitude": "37.85",
    "zipCode": "045000"
  },
  {
    "province": "山西省",
    "city": "阳泉市",
    "county": "城区",
    "longitude": "113.12",
    "latitude": "36.22",
    "zipCode": "045000"
  },
  {
    "province": "山西省",
    "city": "阳泉市",
    "county": "城区",
    "longitude": "112.83",
    "latitude": "35.5",
    "zipCode": "045000"
  },
  {
    "province": "山西省",
    "city": "阳泉市",
    "county": "矿区",
    "longitude": "113.17",
    "latitude": "40.03",
    "zipCode": "045000"
  },
  {
    "province": "山西省",
    "city": "阳泉市",
    "county": "矿区",
    "longitude": "113.57",
    "latitude": "37.87",
    "zipCode": "045000"
  },
  {
    "province": "山西省",
    "city": "阳泉市",
    "county": "郊区",
    "longitude": "113.58",
    "latitude": "37.93",
    "zipCode": "045000"
  },
  {
    "province": "山西省",
    "city": "阳泉市",
    "county": "郊区",
    "longitude": "113.12",
    "latitude": "36.2",
    "zipCode": "045000"
  },
  {
    "province": "山西省",
    "city": "阳泉市",
    "county": "平定县",
    "longitude": "113.62",
    "latitude": "37.8",
    "zipCode": "045200"
  },
  {
    "province": "山西省",
    "city": "阳泉市",
    "county": "盂县",
    "longitude": "113.4",
    "latitude": "38.08",
    "zipCode": "045100"
  },
  {
    "province": "山西省",
    "city": "长治市",
    "county": "长治市",
    "longitude": "113.12",
    "latitude": "36.2",
    "zipCode": "046000"
  },
  {
    "province": "山西省",
    "city": "长治市",
    "county": "城区",
    "longitude": "113.28",
    "latitude": "40.08",
    "zipCode": "046000"
  },
  {
    "province": "山西省",
    "city": "长治市",
    "county": "城区",
    "longitude": "113.6",
    "latitude": "37.85",
    "zipCode": "046000"
  },
  {
    "province": "山西省",
    "city": "长治市",
    "county": "城区",
    "longitude": "113.12",
    "latitude": "36.22",
    "zipCode": "046000"
  },
  {
    "province": "山西省",
    "city": "长治市",
    "county": "城区",
    "longitude": "112.83",
    "latitude": "35.5",
    "zipCode": "046000"
  },
  {
    "province": "山西省",
    "city": "长治市",
    "county": "郊区",
    "longitude": "113.58",
    "latitude": "37.93",
    "zipCode": "046000"
  },
  {
    "province": "山西省",
    "city": "长治市",
    "county": "郊区",
    "longitude": "113.12",
    "latitude": "36.2",
    "zipCode": "046000"
  },
  {
    "province": "山西省",
    "city": "长治市",
    "county": "长治县",
    "longitude": "113.03",
    "latitude": "36.05",
    "zipCode": "047100"
  },
  {
    "province": "山西省",
    "city": "长治市",
    "county": "襄垣县",
    "longitude": "113.05",
    "latitude": "36.53",
    "zipCode": "046200"
  },
  {
    "province": "山西省",
    "city": "长治市",
    "county": "屯留县",
    "longitude": "112.88",
    "latitude": "36.32",
    "zipCode": "046100"
  },
  {
    "province": "山西省",
    "city": "长治市",
    "county": "平顺县",
    "longitude": "113.43",
    "latitude": "36.2",
    "zipCode": "047400"
  },
  {
    "province": "山西省",
    "city": "长治市",
    "county": "黎城县",
    "longitude": "113.38",
    "latitude": "36.5",
    "zipCode": "047600"
  },
  {
    "province": "山西省",
    "city": "长治市",
    "county": "壶关县",
    "longitude": "113.2",
    "latitude": "36.12",
    "zipCode": "047300"
  },
  {
    "province": "山西省",
    "city": "长治市",
    "county": "长子县",
    "longitude": "112.87",
    "latitude": "36.12",
    "zipCode": "046600"
  },
  {
    "province": "山西省",
    "city": "长治市",
    "county": "武乡县",
    "longitude": "112.85",
    "latitude": "36.83",
    "zipCode": "046300"
  },
  {
    "province": "山西省",
    "city": "长治市",
    "county": "沁县",
    "longitude": "112.7",
    "latitude": "36.75",
    "zipCode": "046400"
  },
  {
    "province": "山西省",
    "city": "长治市",
    "county": "沁源县",
    "longitude": "112.33",
    "latitude": "36.5",
    "zipCode": "046500"
  },
  {
    "province": "山西省",
    "city": "长治市",
    "county": "潞城市",
    "longitude": "113.22",
    "latitude": "36.33",
    "zipCode": "047500"
  },
  {
    "province": "山西省",
    "city": "晋城市",
    "county": "晋城市",
    "longitude": "112.83",
    "latitude": "35.5",
    "zipCode": "048000"
  },
  {
    "province": "山西省",
    "city": "晋城市",
    "county": "城区",
    "longitude": "113.28",
    "latitude": "40.08",
    "zipCode": "048000"
  },
  {
    "province": "山西省",
    "city": "晋城市",
    "county": "城区",
    "longitude": "113.6",
    "latitude": "37.85",
    "zipCode": "048000"
  },
  {
    "province": "山西省",
    "city": "晋城市",
    "county": "城区",
    "longitude": "113.12",
    "latitude": "36.22",
    "zipCode": "048000"
  },
  {
    "province": "山西省",
    "city": "晋城市",
    "county": "城区",
    "longitude": "112.83",
    "latitude": "35.5",
    "zipCode": "048000"
  },
  {
    "province": "山西省",
    "city": "晋城市",
    "county": "沁水县",
    "longitude": "112.18",
    "latitude": "35.68",
    "zipCode": "048200"
  },
  {
    "province": "山西省",
    "city": "晋城市",
    "county": "阳城县",
    "longitude": "112.42",
    "latitude": "35.48",
    "zipCode": "048100"
  },
  {
    "province": "山西省",
    "city": "晋城市",
    "county": "陵川县",
    "longitude": "113.27",
    "latitude": "35.78",
    "zipCode": "048300"
  },
  {
    "province": "山西省",
    "city": "晋城市",
    "county": "泽州县",
    "longitude": "112.83",
    "latitude": "35.5",
    "zipCode": "048012"
  },
  {
    "province": "山西省",
    "city": "晋城市",
    "county": "高平市",
    "longitude": "112.92",
    "latitude": "35.8",
    "zipCode": "048400"
  },
  {
    "province": "山西省",
    "city": "朔州市",
    "county": "朔州市",
    "longitude": "112.43",
    "latitude": "39.33",
    "zipCode": "036000"
  },
  {
    "province": "山西省",
    "city": "朔州市",
    "county": "朔城区",
    "longitude": "112.43",
    "latitude": "39.33",
    "zipCode": "036002"
  },
  {
    "province": "山西省",
    "city": "朔州市",
    "county": "山阴县",
    "longitude": "112.82",
    "latitude": "39.52",
    "zipCode": "036900"
  },
  {
    "province": "山西省",
    "city": "朔州市",
    "county": "应县",
    "longitude": "113.18",
    "latitude": "39.55",
    "zipCode": "037600"
  },
  {
    "province": "山西省",
    "city": "朔州市",
    "county": "右玉县",
    "longitude": "112.47",
    "latitude": "39.98",
    "zipCode": "037200"
  },
  {
    "province": "山西省",
    "city": "朔州市",
    "county": "怀仁县",
    "longitude": "113.08",
    "latitude": "39.83",
    "zipCode": "038300"
  },
  {
    "province": "山西省",
    "city": "晋中市",
    "county": "晋中市",
    "longitude": "112.75",
    "latitude": "37.68",
    "zipCode": "030600"
  },
  {
    "province": "山西省",
    "city": "晋中市",
    "county": "榆次区",
    "longitude": "112.75",
    "latitude": "37.68",
    "zipCode": "030600"
  },
  {
    "province": "山西省",
    "city": "晋中市",
    "county": "榆社县",
    "longitude": "112.97",
    "latitude": "37.07",
    "zipCode": "031800"
  },
  {
    "province": "山西省",
    "city": "晋中市",
    "county": "左权县",
    "longitude": "113.37",
    "latitude": "37.07",
    "zipCode": "032600"
  },
  {
    "province": "山西省",
    "city": "晋中市",
    "county": "和顺县",
    "longitude": "113.57",
    "latitude": "37.33",
    "zipCode": "032700"
  },
  {
    "province": "山西省",
    "city": "晋中市",
    "county": "昔阳县",
    "longitude": "113.7",
    "latitude": "37.62",
    "zipCode": "045300"
  },
  {
    "province": "山西省",
    "city": "晋中市",
    "county": "寿阳县",
    "longitude": "113.18",
    "latitude": "37.88",
    "zipCode": "045400"
  },
  {
    "province": "山西省",
    "city": "晋中市",
    "county": "太谷县",
    "longitude": "112.55",
    "latitude": "37.42",
    "zipCode": "030800"
  },
  {
    "province": "山西省",
    "city": "晋中市",
    "county": "祁县",
    "longitude": "112.33",
    "latitude": "37.35",
    "zipCode": "030900"
  },
  {
    "province": "山西省",
    "city": "晋中市",
    "county": "平遥县",
    "longitude": "112.17",
    "latitude": "37.18",
    "zipCode": "031100"
  },
  {
    "province": "山西省",
    "city": "晋中市",
    "county": "灵石县",
    "longitude": "111.77",
    "latitude": "36.85",
    "zipCode": "031300"
  },
  {
    "province": "山西省",
    "city": "晋中市",
    "county": "介休市",
    "longitude": "111.92",
    "latitude": "37.03",
    "zipCode": "032000"
  },
  {
    "province": "山西省",
    "city": "运城市",
    "county": "运城市",
    "longitude": "110.98",
    "latitude": "35.02",
    "zipCode": "044000"
  },
  {
    "province": "山西省",
    "city": "运城市",
    "county": "盐湖区",
    "longitude": "110.98",
    "latitude": "35.02",
    "zipCode": "044000"
  },
  {
    "province": "山西省",
    "city": "运城市",
    "county": "临猗县",
    "longitude": "110.77",
    "latitude": "35.15",
    "zipCode": "044100"
  },
  {
    "province": "山西省",
    "city": "运城市",
    "county": "万荣县",
    "longitude": "110.83",
    "latitude": "35.42",
    "zipCode": "044200"
  },
  {
    "province": "山西省",
    "city": "运城市",
    "county": "闻喜县",
    "longitude": "111.22",
    "latitude": "35.35",
    "zipCode": "043800"
  },
  {
    "province": "山西省",
    "city": "运城市",
    "county": "稷山县",
    "longitude": "110.97",
    "latitude": "35.6",
    "zipCode": "043200"
  },
  {
    "province": "山西省",
    "city": "运城市",
    "county": "新绛县",
    "longitude": "111.22",
    "latitude": "35.62",
    "zipCode": "043100"
  },
  {
    "province": "山西省",
    "city": "运城市",
    "county": "绛县",
    "longitude": "111.57",
    "latitude": "35.48",
    "zipCode": "043600"
  },
  {
    "province": "山西省",
    "city": "运城市",
    "county": "垣曲县",
    "longitude": "111.67",
    "latitude": "35.3",
    "zipCode": "043700"
  },
  {
    "province": "山西省",
    "city": "运城市",
    "county": "夏县",
    "longitude": "111.22",
    "latitude": "35.15",
    "zipCode": "044400"
  },
  {
    "province": "山西省",
    "city": "运城市",
    "county": "平陆县",
    "longitude": "111.22",
    "latitude": "34.83",
    "zipCode": "044300"
  },
  {
    "province": "山西省",
    "city": "运城市",
    "county": "芮城县",
    "longitude": "110.68",
    "latitude": "34.7",
    "zipCode": "044600"
  },
  {
    "province": "山西省",
    "city": "运城市",
    "county": "河津市",
    "longitude": "110.7",
    "latitude": "35.6",
    "zipCode": "043300"
  },
  {
    "province": "山西省",
    "city": "忻州市",
    "county": "忻州市",
    "longitude": "112.73",
    "latitude": "38.42",
    "zipCode": "034000"
  },
  {
    "province": "山西省",
    "city": "忻州市",
    "county": "忻府区",
    "longitude": "112.73",
    "latitude": "38.42",
    "zipCode": "034000"
  },
  {
    "province": "山西省",
    "city": "忻州市",
    "county": "定襄县",
    "longitude": "112.95",
    "latitude": "38.48",
    "zipCode": "035400"
  },
  {
    "province": "山西省",
    "city": "忻州市",
    "county": "五台县",
    "longitude": "113.25",
    "latitude": "38.73",
    "zipCode": "035500"
  },
  {
    "province": "山西省",
    "city": "忻州市",
    "county": "代县",
    "longitude": "112.95",
    "latitude": "39.07",
    "zipCode": "034200"
  },
  {
    "province": "山西省",
    "city": "忻州市",
    "county": "繁峙县",
    "longitude": "113.25",
    "latitude": "39.18",
    "zipCode": "034300"
  },
  {
    "province": "山西省",
    "city": "忻州市",
    "county": "宁武县",
    "longitude": "112.3",
    "latitude": "39.0",
    "zipCode": "036700"
  },
  {
    "province": "山西省",
    "city": "忻州市",
    "county": "静乐县",
    "longitude": "111.93",
    "latitude": "38.37",
    "zipCode": "035100"
  },
  {
    "province": "山西省",
    "city": "忻州市",
    "county": "神池县",
    "longitude": "112.2",
    "latitude": "39.08",
    "zipCode": "036100"
  },
  {
    "province": "山西省",
    "city": "忻州市",
    "county": "五寨县",
    "longitude": "111.85",
    "latitude": "38.9",
    "zipCode": "036200"
  },
  {
    "province": "山西省",
    "city": "忻州市",
    "county": "岢岚县",
    "longitude": "111.57",
    "latitude": "38.7",
    "zipCode": "036300"
  },
  {
    "province": "山西省",
    "city": "忻州市",
    "county": "河曲县",
    "longitude": "111.13",
    "latitude": "39.38",
    "zipCode": "036500"
  },
  {
    "province": "山西省",
    "city": "忻州市",
    "county": "偏关县",
    "longitude": "111.5",
    "latitude": "39.43",
    "zipCode": "036400"
  },
  {
    "province": "山西省",
    "city": "忻州市",
    "county": "原平市",
    "longitude": "112.7",
    "latitude": "38.73",
    "zipCode": "034100"
  },
  {
    "province": "山西省",
    "city": "临汾市",
    "county": "临汾市",
    "longitude": "111.52",
    "latitude": "36.08",
    "zipCode": "041000"
  },
  {
    "province": "山西省",
    "city": "临汾市",
    "county": "尧都区",
    "longitude": "111.52",
    "latitude": "36.08",
    "zipCode": "041000"
  },
  {
    "province": "山西省",
    "city": "临汾市",
    "county": "曲沃县",
    "longitude": "111.47",
    "latitude": "35.63",
    "zipCode": "043400"
  },
  {
    "province": "山西省",
    "city": "临汾市",
    "county": "翼城县",
    "longitude": "111.72",
    "latitude": "35.73",
    "zipCode": "043500"
  },
  {
    "province": "山西省",
    "city": "临汾市",
    "county": "襄汾县",
    "longitude": "111.43",
    "latitude": "35.88",
    "zipCode": "041500"
  },
  {
    "province": "山西省",
    "city": "临汾市",
    "county": "洪洞县",
    "longitude": "111.67",
    "latitude": "36.25",
    "zipCode": "041600"
  },
  {
    "province": "山西省",
    "city": "临汾市",
    "county": "古县",
    "longitude": "111.92",
    "latitude": "36.27",
    "zipCode": "042400"
  },
  {
    "province": "山西省",
    "city": "临汾市",
    "county": "安泽县",
    "longitude": "112.25",
    "latitude": "36.15",
    "zipCode": "042500"
  },
  {
    "province": "山西省",
    "city": "临汾市",
    "county": "浮山县",
    "longitude": "111.83",
    "latitude": "35.97",
    "zipCode": "042600"
  },
  {
    "province": "山西省",
    "city": "临汾市",
    "county": "吉县",
    "longitude": "110.68",
    "latitude": "36.1",
    "zipCode": "042200"
  },
  {
    "province": "山西省",
    "city": "临汾市",
    "county": "乡宁县",
    "longitude": "110.83",
    "latitude": "35.97",
    "zipCode": "042100"
  },
  {
    "province": "山西省",
    "city": "临汾市",
    "county": "大宁县",
    "longitude": "110.75",
    "latitude": "36.47",
    "zipCode": "042300"
  },
  {
    "province": "山西省",
    "city": "临汾市",
    "county": "隰县",
    "longitude": "110.93",
    "latitude": "36.7",
    "zipCode": "041300"
  },
  {
    "province": "山西省",
    "city": "临汾市",
    "county": "永和县",
    "longitude": "110.63",
    "latitude": "36.77",
    "zipCode": "041400"
  },
  {
    "province": "山西省",
    "city": "临汾市",
    "county": "蒲县",
    "longitude": "111.08",
    "latitude": "36.42",
    "zipCode": "041200"
  },
  {
    "province": "山西省",
    "city": "临汾市",
    "county": "汾西县",
    "longitude": "111.57",
    "latitude": "36.65",
    "zipCode": "031500"
  },
  {
    "province": "山西省",
    "city": "临汾市",
    "county": "侯马市",
    "longitude": "111.35",
    "latitude": "35.62",
    "zipCode": "043000"
  },
  {
    "province": "山西省",
    "city": "临汾市",
    "county": "霍州市",
    "longitude": "111.72",
    "latitude": "36.57",
    "zipCode": "031400"
  },
  {
    "province": "山西省",
    "city": "吕梁市",
    "county": "吕梁市",
    "longitude": "111.13",
    "latitude": "37.52",
    "zipCode": "033000"
  },
  {
    "province": "山西省",
    "city": "吕梁市",
    "county": "离石区",
    "longitude": "111.13",
    "latitude": "37.52",
    "zipCode": "033000"
  },
  {
    "province": "山西省",
    "city": "吕梁市",
    "county": "文水县",
    "longitude": "112.02",
    "latitude": "37.43",
    "zipCode": "032100"
  },
  {
    "province": "山西省",
    "city": "吕梁市",
    "county": "交城县",
    "longitude": "112.15",
    "latitude": "37.55",
    "zipCode": "030500"
  },
  {
    "province": "山西省",
    "city": "吕梁市",
    "county": "兴县",
    "longitude": "111.12",
    "latitude": "38.47",
    "zipCode": "033600"
  },
  {
    "province": "山西省",
    "city": "吕梁市",
    "county": "临县",
    "longitude": "110.98",
    "latitude": "37.95",
    "zipCode": "033200"
  },
  {
    "province": "山西省",
    "city": "吕梁市",
    "county": "柳林县",
    "longitude": "110.9",
    "latitude": "37.43",
    "zipCode": "033300"
  },
  {
    "province": "山西省",
    "city": "吕梁市",
    "county": "石楼县",
    "longitude": "110.83",
    "latitude": "37.0",
    "zipCode": "032500"
  },
  {
    "province": "山西省",
    "city": "吕梁市",
    "county": "岚县",
    "longitude": "111.67",
    "latitude": "38.28",
    "zipCode": "035200"
  },
  {
    "province": "山西省",
    "city": "吕梁市",
    "county": "方山县",
    "longitude": "111.23",
    "latitude": "37.88",
    "zipCode": "033100"
  },
  {
    "province": "山西省",
    "city": "吕梁市",
    "county": "中阳县",
    "longitude": "111.18",
    "latitude": "37.33",
    "zipCode": "033400"
  },
  {
    "province": "山西省",
    "city": "吕梁市",
    "county": "交口县",
    "longitude": "111.2",
    "latitude": "36.97",
    "zipCode": "032400"
  },
  {
    "province": "山西省",
    "city": "吕梁市",
    "county": "孝义市",
    "longitude": "111.77",
    "latitude": "37.15",
    "zipCode": "032300"
  },
  {
    "province": "山西省",
    "city": "吕梁市",
    "county": "汾阳市",
    "longitude": "111.78",
    "latitude": "37.27",
    "zipCode": "032200"
  },
  {
    "province": "内蒙古自治区",
    "city": "呼和浩特市",
    "county": "呼和浩特市",
    "longitude": "111.73",
    "latitude": "40.83",
    "zipCode": "010000"
  },
  {
    "province": "内蒙古自治区",
    "city": "呼和浩特市",
    "county": "新城区",
    "longitude": "111.65",
    "latitude": "40.87",
    "zipCode": "010000"
  },
  {
    "province": "内蒙古自治区",
    "city": "呼和浩特市",
    "county": "回民区",
    "longitude": "111.6",
    "latitude": "40.8",
    "zipCode": "010030"
  },
  {
    "province": "内蒙古自治区",
    "city": "呼和浩特市",
    "county": "玉泉区",
    "longitude": "111.67",
    "latitude": "40.75",
    "zipCode": "010000"
  },
  {
    "province": "内蒙古自治区",
    "city": "呼和浩特市",
    "county": "赛罕区",
    "longitude": "111.68",
    "latitude": "40.8",
    "zipCode": "010020"
  },
  {
    "province": "内蒙古自治区",
    "city": "呼和浩特市",
    "county": "土默特左旗",
    "longitude": "111.13",
    "latitude": "40.72",
    "zipCode": "010100"
  },
  {
    "province": "内蒙古自治区",
    "city": "呼和浩特市",
    "county": "托克托县",
    "longitude": "111.18",
    "latitude": "40.27",
    "zipCode": "010200"
  },
  {
    "province": "内蒙古自治区",
    "city": "呼和浩特市",
    "county": "和林格尔县",
    "longitude": "111.82",
    "latitude": "40.38",
    "zipCode": "011500"
  },
  {
    "province": "内蒙古自治区",
    "city": "呼和浩特市",
    "county": "清水河县",
    "longitude": "111.68",
    "latitude": "39.92",
    "zipCode": "011600"
  },
  {
    "province": "内蒙古自治区",
    "city": "呼和浩特市",
    "county": "武川县",
    "longitude": "111.45",
    "latitude": "41.08",
    "zipCode": "011700"
  },
  {
    "province": "内蒙古自治区",
    "city": "包头市",
    "county": "包头市",
    "longitude": "109.83",
    "latitude": "40.65",
    "zipCode": "014000"
  },
  {
    "province": "内蒙古自治区",
    "city": "包头市",
    "county": "东河区",
    "longitude": "110.02",
    "latitude": "40.58",
    "zipCode": "014040"
  },
  {
    "province": "内蒙古自治区",
    "city": "包头市",
    "county": "昆都仑区",
    "longitude": "109.83",
    "latitude": "40.63",
    "zipCode": "014010"
  },
  {
    "province": "内蒙古自治区",
    "city": "包头市",
    "county": "青山区",
    "longitude": "109.9",
    "latitude": "40.65",
    "zipCode": "014030"
  },
  {
    "province": "内蒙古自治区",
    "city": "包头市",
    "county": "石拐区",
    "longitude": "110.27",
    "latitude": "40.68",
    "zipCode": "014070"
  },
  {
    "province": "内蒙古自治区",
    "city": "包头市",
    "county": "九原区",
    "longitude": "109.97",
    "latitude": "40.6",
    "zipCode": "014060"
  },
  {
    "province": "内蒙古自治区",
    "city": "包头市",
    "county": "土默特右旗",
    "longitude": "110.52",
    "latitude": "40.57",
    "zipCode": "014100"
  },
  {
    "province": "内蒙古自治区",
    "city": "包头市",
    "county": "固阳县",
    "longitude": "110.05",
    "latitude": "41.03",
    "zipCode": "014200"
  },
  {
    "province": "内蒙古自治区",
    "city": "包头市",
    "county": "达尔罕茂明安联合旗",
    "longitude": "110.43",
    "latitude": "41.7",
    "zipCode": "014500"
  },
  {
    "province": "内蒙古自治区",
    "city": "乌海市",
    "county": "乌海市",
    "longitude": "106.82",
    "latitude": "39.67",
    "zipCode": "016000"
  },
  {
    "province": "内蒙古自治区",
    "city": "乌海市",
    "county": "海勃湾区",
    "longitude": "106.83",
    "latitude": "39.7",
    "zipCode": "016000"
  },
  {
    "province": "内蒙古自治区",
    "city": "乌海市",
    "county": "海南区",
    "longitude": "106.88",
    "latitude": "39.43",
    "zipCode": "016000"
  },
  {
    "province": "内蒙古自治区",
    "city": "乌海市",
    "county": "乌达区",
    "longitude": "106.7",
    "latitude": "39.5",
    "zipCode": "016000"
  },
  {
    "province": "内蒙古自治区",
    "city": "赤峰市",
    "county": "赤峰市",
    "longitude": "118.92",
    "latitude": "42.27",
    "zipCode": "024000"
  },
  {
    "province": "内蒙古自治区",
    "city": "赤峰市",
    "county": "红山区",
    "longitude": "118.97",
    "latitude": "42.28",
    "zipCode": "024000"
  },
  {
    "province": "内蒙古自治区",
    "city": "赤峰市",
    "county": "元宝山区",
    "longitude": "119.28",
    "latitude": "42.03",
    "zipCode": "024000"
  },
  {
    "province": "内蒙古自治区",
    "city": "赤峰市",
    "county": "松山区",
    "longitude": "118.92",
    "latitude": "42.28",
    "zipCode": "024000"
  },
  {
    "province": "内蒙古自治区",
    "city": "赤峰市",
    "county": "阿鲁科尔沁旗",
    "longitude": "120.08",
    "latitude": "43.88",
    "zipCode": "025550"
  },
  {
    "province": "内蒙古自治区",
    "city": "赤峰市",
    "county": "巴林左旗",
    "longitude": "119.38",
    "latitude": "43.98",
    "zipCode": "025450"
  },
  {
    "province": "内蒙古自治区",
    "city": "赤峰市",
    "county": "巴林右旗",
    "longitude": "118.67",
    "latitude": "43.52",
    "zipCode": "025150"
  },
  {
    "province": "内蒙古自治区",
    "city": "赤峰市",
    "county": "林西县",
    "longitude": "118.05",
    "latitude": "43.6",
    "zipCode": "025350"
  },
  {
    "province": "内蒙古自治区",
    "city": "赤峰市",
    "county": "克什克腾旗",
    "longitude": "117.53",
    "latitude": "43.25",
    "zipCode": "025350"
  },
  {
    "province": "内蒙古自治区",
    "city": "赤峰市",
    "county": "翁牛特旗",
    "longitude": "119.02",
    "latitude": "42.93",
    "zipCode": "024500"
  },
  {
    "province": "内蒙古自治区",
    "city": "赤峰市",
    "county": "喀喇沁旗",
    "longitude": "118.7",
    "latitude": "41.93",
    "zipCode": "024400"
  },
  {
    "province": "内蒙古自治区",
    "city": "赤峰市",
    "county": "宁城县",
    "longitude": "119.33",
    "latitude": "41.6",
    "zipCode": "024200"
  },
  {
    "province": "内蒙古自治区",
    "city": "赤峰市",
    "county": "敖汉旗",
    "longitude": "119.9",
    "latitude": "42.28",
    "zipCode": "024300"
  },
  {
    "province": "内蒙古自治区",
    "city": "通辽市",
    "county": "通辽市",
    "longitude": "122.27",
    "latitude": "43.62",
    "zipCode": "028000"
  },
  {
    "province": "内蒙古自治区",
    "city": "通辽市",
    "county": "科尔沁区",
    "longitude": "122.27",
    "latitude": "43.62",
    "zipCode": "028000"
  },
  {
    "province": "内蒙古自治区",
    "city": "通辽市",
    "county": "科尔沁左翼中旗",
    "longitude": "123.32",
    "latitude": "44.13",
    "zipCode": "029300"
  },
  {
    "province": "内蒙古自治区",
    "city": "通辽市",
    "county": "科尔沁左翼后旗",
    "longitude": "122.35",
    "latitude": "42.95",
    "zipCode": "028100"
  },
  {
    "province": "内蒙古自治区",
    "city": "通辽市",
    "county": "开鲁县",
    "longitude": "121.3",
    "latitude": "43.6",
    "zipCode": "028400"
  },
  {
    "province": "内蒙古自治区",
    "city": "通辽市",
    "county": "库伦旗",
    "longitude": "121.77",
    "latitude": "42.73",
    "zipCode": "028200"
  },
  {
    "province": "内蒙古自治区",
    "city": "通辽市",
    "county": "奈曼旗",
    "longitude": "120.65",
    "latitude": "42.85",
    "zipCode": "028300"
  },
  {
    "province": "内蒙古自治区",
    "city": "通辽市",
    "county": "扎鲁特旗",
    "longitude": "120.92",
    "latitude": "44.55",
    "zipCode": "029100"
  },
  {
    "province": "内蒙古自治区",
    "city": "通辽市",
    "county": "霍林郭勒市",
    "longitude": "119.65",
    "latitude": "45.53",
    "zipCode": "029200"
  },
  {
    "province": "内蒙古自治区",
    "city": "鄂尔多斯市",
    "county": "鄂尔多斯市",
    "longitude": "109.8",
    "latitude": "39.62",
    "zipCode": "017000"
  },
  {
    "province": "内蒙古自治区",
    "city": "鄂尔多斯市",
    "county": "东胜区",
    "longitude": "110.0",
    "latitude": "39.82",
    "zipCode": "017000"
  },
  {
    "province": "内蒙古自治区",
    "city": "鄂尔多斯市",
    "county": "达拉特旗",
    "longitude": "110.03",
    "latitude": "40.4",
    "zipCode": "014300"
  },
  {
    "province": "内蒙古自治区",
    "city": "鄂尔多斯市",
    "county": "准格尔旗",
    "longitude": "111.23",
    "latitude": "39.87",
    "zipCode": "017100"
  },
  {
    "province": "内蒙古自治区",
    "city": "鄂尔多斯市",
    "county": "鄂托克前旗",
    "longitude": "107.48",
    "latitude": "38.18",
    "zipCode": "016200"
  },
  {
    "province": "内蒙古自治区",
    "city": "鄂尔多斯市",
    "county": "鄂托克旗",
    "longitude": "107.98",
    "latitude": "39.1",
    "zipCode": "016100"
  },
  {
    "province": "内蒙古自治区",
    "city": "鄂尔多斯市",
    "county": "杭锦旗",
    "longitude": "108.72",
    "latitude": "39.83",
    "zipCode": "017400"
  },
  {
    "province": "内蒙古自治区",
    "city": "鄂尔多斯市",
    "county": "乌审旗",
    "longitude": "108.85",
    "latitude": "38.6",
    "zipCode": "017300"
  },
  {
    "province": "内蒙古自治区",
    "city": "鄂尔多斯市",
    "county": "伊金霍洛旗",
    "longitude": "109.73",
    "latitude": "39.57",
    "zipCode": "017200"
  },
  {
    "province": "内蒙古自治区",
    "city": "呼伦贝尔市",
    "county": "呼伦贝尔市",
    "longitude": "119.77",
    "latitude": "49.22",
    "zipCode": "021000"
  },
  {
    "province": "内蒙古自治区",
    "city": "呼伦贝尔市",
    "county": "海拉尔区",
    "longitude": "119.77",
    "latitude": "49.22",
    "zipCode": "021000"
  },
  {
    "province": "内蒙古自治区",
    "city": "呼伦贝尔市",
    "county": "阿荣旗",
    "longitude": "123.47",
    "latitude": "48.13",
    "zipCode": "162750"
  },
  {
    "province": "内蒙古自治区",
    "city": "呼伦贝尔市",
    "county": "鄂伦春自治旗",
    "longitude": "123.72",
    "latitude": "50.58",
    "zipCode": "022450"
  },
  {
    "province": "内蒙古自治区",
    "city": "呼伦贝尔市",
    "county": "鄂温克族自治旗",
    "longitude": "119.75",
    "latitude": "49.13",
    "zipCode": "021100"
  },
  {
    "province": "内蒙古自治区",
    "city": "呼伦贝尔市",
    "county": "陈巴尔虎旗",
    "longitude": "119.43",
    "latitude": "49.32",
    "zipCode": "021500"
  },
  {
    "province": "内蒙古自治区",
    "city": "呼伦贝尔市",
    "county": "新巴尔虎左旗",
    "longitude": "118.27",
    "latitude": "48.22",
    "zipCode": "021200"
  },
  {
    "province": "内蒙古自治区",
    "city": "呼伦贝尔市",
    "county": "新巴尔虎右旗",
    "longitude": "116.82",
    "latitude": "48.67",
    "zipCode": "021300"
  },
  {
    "province": "内蒙古自治区",
    "city": "呼伦贝尔市",
    "county": "满洲里市",
    "longitude": "117.45",
    "latitude": "49.58",
    "zipCode": "021400"
  },
  {
    "province": "内蒙古自治区",
    "city": "呼伦贝尔市",
    "county": "牙克石市",
    "longitude": "120.73",
    "latitude": "49.28",
    "zipCode": "022150"
  },
  {
    "province": "内蒙古自治区",
    "city": "呼伦贝尔市",
    "county": "扎兰屯市",
    "longitude": "122.75",
    "latitude": "47.98",
    "zipCode": "162650"
  },
  {
    "province": "内蒙古自治区",
    "city": "呼伦贝尔市",
    "county": "额尔古纳市",
    "longitude": "120.18",
    "latitude": "50.23",
    "zipCode": "022250"
  },
  {
    "province": "内蒙古自治区",
    "city": "呼伦贝尔市",
    "county": "根河市",
    "longitude": "121.52",
    "latitude": "50.78",
    "zipCode": "022350"
  },
  {
    "province": "内蒙古自治区",
    "city": "巴彦淖尔市",
    "county": "巴彦淖尔市",
    "longitude": "107.42",
    "latitude": "40.75",
    "zipCode": "015000"
  },
  {
    "province": "内蒙古自治区",
    "city": "巴彦淖尔市",
    "county": "临河区",
    "longitude": "107.4",
    "latitude": "40.75",
    "zipCode": "015000"
  },
  {
    "province": "内蒙古自治区",
    "city": "巴彦淖尔市",
    "county": "五原县",
    "longitude": "108.27",
    "latitude": "41.1",
    "zipCode": "015100"
  },
  {
    "province": "内蒙古自治区",
    "city": "巴彦淖尔市",
    "county": "磴口县",
    "longitude": "107.02",
    "latitude": "40.33",
    "zipCode": "015200"
  },
  {
    "province": "内蒙古自治区",
    "city": "巴彦淖尔市",
    "county": "乌拉特前旗",
    "longitude": "108.65",
    "latitude": "40.72",
    "zipCode": "014400"
  },
  {
    "province": "内蒙古自治区",
    "city": "巴彦淖尔市",
    "county": "乌拉特中旗",
    "longitude": "108.52",
    "latitude": "41.57",
    "zipCode": "015300"
  },
  {
    "province": "内蒙古自治区",
    "city": "巴彦淖尔市",
    "county": "乌拉特后旗",
    "longitude": "107.07",
    "latitude": "41.1",
    "zipCode": "015543"
  },
  {
    "province": "内蒙古自治区",
    "city": "巴彦淖尔市",
    "county": "杭锦后旗",
    "longitude": "107.15",
    "latitude": "40.88",
    "zipCode": "015400"
  },
  {
    "province": "内蒙古自治区",
    "city": "乌兰察布市",
    "county": "乌兰察布市",
    "longitude": "113.12",
    "latitude": "40.98",
    "zipCode": "012000"
  },
  {
    "province": "内蒙古自治区",
    "city": "乌兰察布市",
    "county": "集宁区",
    "longitude": "113.1",
    "latitude": "41.03",
    "zipCode": "012000"
  },
  {
    "province": "内蒙古自治区",
    "city": "乌兰察布市",
    "county": "卓资县",
    "longitude": "112.57",
    "latitude": "40.9",
    "zipCode": "012300"
  },
  {
    "province": "内蒙古自治区",
    "city": "乌兰察布市",
    "county": "化德县",
    "longitude": "114.0",
    "latitude": "41.9",
    "zipCode": "013350"
  },
  {
    "province": "内蒙古自治区",
    "city": "乌兰察布市",
    "county": "商都县",
    "longitude": "113.53",
    "latitude": "41.55",
    "zipCode": "013450"
  },
  {
    "province": "内蒙古自治区",
    "city": "乌兰察布市",
    "county": "兴和县",
    "longitude": "113.88",
    "latitude": "40.88",
    "zipCode": "013650"
  },
  {
    "province": "内蒙古自治区",
    "city": "乌兰察布市",
    "county": "凉城县",
    "longitude": "112.48",
    "latitude": "40.53",
    "zipCode": "013750"
  },
  {
    "province": "内蒙古自治区",
    "city": "乌兰察布市",
    "county": "察哈尔右翼前旗",
    "longitude": "113.22",
    "latitude": "40.78",
    "zipCode": "012200"
  },
  {
    "province": "内蒙古自治区",
    "city": "乌兰察布市",
    "county": "察哈尔右翼中旗",
    "longitude": "112.63",
    "latitude": "41.27",
    "zipCode": "013550"
  },
  {
    "province": "内蒙古自治区",
    "city": "乌兰察布市",
    "county": "察哈尔右翼后旗",
    "longitude": "113.18",
    "latitude": "41.45",
    "zipCode": "012400"
  },
  {
    "province": "内蒙古自治区",
    "city": "乌兰察布市",
    "county": "四子王旗",
    "longitude": "111.7",
    "latitude": "41.52",
    "zipCode": "011800"
  },
  {
    "province": "内蒙古自治区",
    "city": "乌兰察布市",
    "county": "丰镇市",
    "longitude": "113.15",
    "latitude": "40.43",
    "zipCode": "012100"
  },
  {
    "province": "内蒙古自治区",
    "city": "兴安盟",
    "county": "兴安盟",
    "longitude": "122.05",
    "latitude": "46.08",
    "zipCode": "137400"
  },
  {
    "province": "内蒙古自治区",
    "city": "兴安盟",
    "county": "乌兰浩特市",
    "longitude": "122.05",
    "latitude": "46.08",
    "zipCode": "137400"
  },
  {
    "province": "内蒙古自治区",
    "city": "兴安盟",
    "county": "阿尔山市",
    "longitude": "119.93",
    "latitude": "47.18",
    "zipCode": "137805"
  },
  {
    "province": "内蒙古自治区",
    "city": "兴安盟",
    "county": "科尔沁右翼前旗",
    "longitude": "121.92",
    "latitude": "46.07",
    "zipCode": "137423"
  },
  {
    "province": "内蒙古自治区",
    "city": "兴安盟",
    "county": "科尔沁右翼中旗",
    "longitude": "121.47",
    "latitude": "45.05",
    "zipCode": "029400"
  },
  {
    "province": "内蒙古自治区",
    "city": "兴安盟",
    "county": "扎赉特旗",
    "longitude": "122.9",
    "latitude": "46.73",
    "zipCode": "137600"
  },
  {
    "province": "内蒙古自治区",
    "city": "兴安盟",
    "county": "突泉县",
    "longitude": "121.57",
    "latitude": "45.38",
    "zipCode": "137500"
  },
  {
    "province": "内蒙古自治区",
    "city": "锡林郭勒盟",
    "county": "锡林郭勒盟",
    "longitude": "116.07",
    "latitude": "43.95",
    "zipCode": "026000"
  },
  {
    "province": "内蒙古自治区",
    "city": "锡林郭勒盟",
    "county": "二连浩特市",
    "longitude": "111.98",
    "latitude": "43.65",
    "zipCode": "012600"
  },
  {
    "province": "内蒙古自治区",
    "city": "锡林郭勒盟",
    "county": "锡林浩特市",
    "longitude": "116.07",
    "latitude": "43.93",
    "zipCode": "026000"
  },
  {
    "province": "内蒙古自治区",
    "city": "锡林郭勒盟",
    "county": "阿巴嘎旗",
    "longitude": "114.97",
    "latitude": "44.02",
    "zipCode": "011400"
  },
  {
    "province": "内蒙古自治区",
    "city": "锡林郭勒盟",
    "county": "苏尼特左旗",
    "longitude": "113.63",
    "latitude": "43.85",
    "zipCode": "011300"
  },
  {
    "province": "内蒙古自治区",
    "city": "锡林郭勒盟",
    "county": "苏尼特右旗",
    "longitude": "112.65",
    "latitude": "42.75",
    "zipCode": "011200"
  },
  {
    "province": "内蒙古自治区",
    "city": "锡林郭勒盟",
    "county": "东乌珠穆沁旗",
    "longitude": "116.97",
    "latitude": "45.52",
    "zipCode": "026300"
  },
  {
    "province": "内蒙古自治区",
    "city": "锡林郭勒盟",
    "county": "西乌珠穆沁旗",
    "longitude": "117.6",
    "latitude": "44.58",
    "zipCode": "026200"
  },
  {
    "province": "内蒙古自治区",
    "city": "锡林郭勒盟",
    "county": "太仆寺旗",
    "longitude": "115.28",
    "latitude": "41.9",
    "zipCode": "027000"
  },
  {
    "province": "内蒙古自治区",
    "city": "锡林郭勒盟",
    "county": "镶黄旗",
    "longitude": "113.83",
    "latitude": "42.23",
    "zipCode": "013250"
  },
  {
    "province": "内蒙古自治区",
    "city": "锡林郭勒盟",
    "county": "正镶白旗",
    "longitude": "115.0",
    "latitude": "42.3",
    "zipCode": "013800"
  },
  {
    "province": "内蒙古自治区",
    "city": "锡林郭勒盟",
    "county": "正蓝旗",
    "longitude": "116.0",
    "latitude": "42.25",
    "zipCode": "027200"
  },
  {
    "province": "内蒙古自治区",
    "city": "锡林郭勒盟",
    "county": "多伦县",
    "longitude": "116.47",
    "latitude": "42.18",
    "zipCode": "027300"
  },
  {
    "province": "内蒙古自治区",
    "city": "阿拉善盟",
    "county": "阿拉善盟",
    "longitude": "105.67",
    "latitude": "38.83",
    "zipCode": "750306"
  },
  {
    "province": "内蒙古自治区",
    "city": "阿拉善盟",
    "county": "阿拉善左旗",
    "longitude": "105.67",
    "latitude": "38.83",
    "zipCode": "750306"
  },
  {
    "province": "内蒙古自治区",
    "city": "阿拉善盟",
    "county": "阿拉善右旗",
    "longitude": "101.68",
    "latitude": "39.2",
    "zipCode": "737300"
  },
  {
    "province": "内蒙古自治区",
    "city": "阿拉善盟",
    "county": "额济纳旗",
    "longitude": "101.07",
    "latitude": "41.97",
    "zipCode": "735400"
  },
  {
    "province": "辽宁省",
    "city": "沈阳市",
    "county": "沈阳市",
    "longitude": "123.43",
    "latitude": "41.8",
    "zipCode": "110000"
  },
  {
    "province": "辽宁省",
    "city": "沈阳市",
    "county": "和平区",
    "longitude": "123.4",
    "latitude": "41.78",
    "zipCode": "110000"
  },
  {
    "province": "辽宁省",
    "city": "沈阳市",
    "county": "沈河区",
    "longitude": "123.45",
    "latitude": "41.8",
    "zipCode": "110000"
  },
  {
    "province": "辽宁省",
    "city": "沈阳市",
    "county": "大东区",
    "longitude": "123.47",
    "latitude": "41.8",
    "zipCode": "110041"
  },
  {
    "province": "辽宁省",
    "city": "沈阳市",
    "county": "皇姑区",
    "longitude": "123.42",
    "latitude": "41.82",
    "zipCode": "110000"
  },
  {
    "province": "辽宁省",
    "city": "沈阳市",
    "county": "铁西区",
    "longitude": "122.95",
    "latitude": "41.12",
    "zipCode": "110020"
  },
  {
    "province": "辽宁省",
    "city": "沈阳市",
    "county": "铁西区",
    "longitude": "123.35",
    "latitude": "41.8",
    "zipCode": "110020"
  },
  {
    "province": "辽宁省",
    "city": "沈阳市",
    "county": "苏家屯区",
    "longitude": "123.33",
    "latitude": "41.67",
    "zipCode": "110101"
  },
  {
    "province": "辽宁省",
    "city": "沈阳市",
    "county": "东陵区",
    "longitude": "123.47",
    "latitude": "41.77",
    "zipCode": "110000"
  },
  {
    "province": "辽宁省",
    "city": "沈阳市",
    "county": "新城子区",
    "longitude": "123.52",
    "latitude": "42.05",
    "zipCode": "110121"
  },
  {
    "province": "辽宁省",
    "city": "沈阳市",
    "county": "于洪区",
    "longitude": "123.3",
    "latitude": "41.78",
    "zipCode": "110000"
  },
  {
    "province": "辽宁省",
    "city": "沈阳市",
    "county": "辽中县",
    "longitude": "122.72",
    "latitude": "41.52",
    "zipCode": "110200"
  },
  {
    "province": "辽宁省",
    "city": "沈阳市",
    "county": "康平县",
    "longitude": "123.35",
    "latitude": "42.75",
    "zipCode": "110500"
  },
  {
    "province": "辽宁省",
    "city": "沈阳市",
    "county": "法库县",
    "longitude": "123.4",
    "latitude": "42.5",
    "zipCode": "110400"
  },
  {
    "province": "辽宁省",
    "city": "沈阳市",
    "county": "新民市",
    "longitude": "122.82",
    "latitude": "42.0",
    "zipCode": "110300"
  },
  {
    "province": "辽宁省",
    "city": "大连市",
    "county": "大连市",
    "longitude": "121.62",
    "latitude": "38.92",
    "zipCode": "116000"
  },
  {
    "province": "辽宁省",
    "city": "大连市",
    "county": "中山区",
    "longitude": "121.63",
    "latitude": "38.92",
    "zipCode": "116001"
  },
  {
    "province": "辽宁省",
    "city": "大连市",
    "county": "西岗区",
    "longitude": "121.6",
    "latitude": "38.92",
    "zipCode": "116000"
  },
  {
    "province": "辽宁省",
    "city": "大连市",
    "county": "沙河口区",
    "longitude": "121.58",
    "latitude": "38.9",
    "zipCode": "116021"
  },
  {
    "province": "辽宁省",
    "city": "大连市",
    "county": "甘井子区",
    "longitude": "121.57",
    "latitude": "38.95",
    "zipCode": "116033"
  },
  {
    "province": "辽宁省",
    "city": "大连市",
    "county": "旅顺口区",
    "longitude": "121.27",
    "latitude": "38.82",
    "zipCode": "116041"
  },
  {
    "province": "辽宁省",
    "city": "大连市",
    "county": "金州区",
    "longitude": "121.7",
    "latitude": "39.1",
    "zipCode": "116100"
  },
  {
    "province": "辽宁省",
    "city": "大连市",
    "county": "长海县",
    "longitude": "122.58",
    "latitude": "39.27",
    "zipCode": "116500"
  },
  {
    "province": "辽宁省",
    "city": "大连市",
    "county": "瓦房店市",
    "longitude": "122.0",
    "latitude": "39.62",
    "zipCode": "116300"
  },
  {
    "province": "辽宁省",
    "city": "大连市",
    "county": "普兰店市",
    "longitude": "121.95",
    "latitude": "39.4",
    "zipCode": "116200"
  },
  {
    "province": "辽宁省",
    "city": "大连市",
    "county": "庄河市",
    "longitude": "122.98",
    "latitude": "39.7",
    "zipCode": "116400"
  },
  {
    "province": "辽宁省",
    "city": "鞍山市",
    "county": "鞍山市",
    "longitude": "122.98",
    "latitude": "41.1",
    "zipCode": "114000"
  },
  {
    "province": "辽宁省",
    "city": "鞍山市",
    "county": "铁东区",
    "longitude": "122.98",
    "latitude": "41.1",
    "zipCode": "114001"
  },
  {
    "province": "辽宁省",
    "city": "鞍山市",
    "county": "铁西区",
    "longitude": "122.95",
    "latitude": "41.12",
    "zipCode": "114014"
  },
  {
    "province": "辽宁省",
    "city": "鞍山市",
    "county": "铁西区",
    "longitude": "123.35",
    "latitude": "41.8",
    "zipCode": "114014"
  },
  {
    "province": "辽宁省",
    "city": "鞍山市",
    "county": "立山区",
    "longitude": "123.0",
    "latitude": "41.15",
    "zipCode": "114031"
  },
  {
    "province": "辽宁省",
    "city": "鞍山市",
    "county": "千山区",
    "longitude": "122.97",
    "latitude": "41.07",
    "zipCode": "114000"
  },
  {
    "province": "辽宁省",
    "city": "鞍山市",
    "county": "台安县",
    "longitude": "122.42",
    "latitude": "41.38",
    "zipCode": "114100"
  },
  {
    "province": "辽宁省",
    "city": "鞍山市",
    "county": "岫岩满族自治县",
    "longitude": "123.28",
    "latitude": "40.28",
    "zipCode": "114300"
  },
  {
    "province": "辽宁省",
    "city": "鞍山市",
    "county": "海城市",
    "longitude": "122.7",
    "latitude": "40.88",
    "zipCode": "114200"
  },
  {
    "province": "辽宁省",
    "city": "抚顺市",
    "county": "抚顺市",
    "longitude": "123.98",
    "latitude": "41.88",
    "zipCode": "113006"
  },
  {
    "province": "辽宁省",
    "city": "抚顺市",
    "county": "新抚区",
    "longitude": "123.88",
    "latitude": "41.87",
    "zipCode": "113008"
  },
  {
    "province": "辽宁省",
    "city": "抚顺市",
    "county": "东洲区",
    "longitude": "124.02",
    "latitude": "41.85",
    "zipCode": "113006"
  },
  {
    "province": "辽宁省",
    "city": "抚顺市",
    "county": "望花区",
    "longitude": "123.78",
    "latitude": "41.85",
    "zipCode": "113001"
  },
  {
    "province": "辽宁省",
    "city": "抚顺市",
    "county": "顺城区",
    "longitude": "123.93",
    "latitude": "41.88",
    "zipCode": "113006"
  },
  {
    "province": "辽宁省",
    "city": "抚顺市",
    "county": "抚顺县",
    "longitude": "123.9",
    "latitude": "41.88",
    "zipCode": "113118"
  },
  {
    "province": "辽宁省",
    "city": "抚顺市",
    "county": "新宾满族自治县",
    "longitude": "125.03",
    "latitude": "41.73",
    "zipCode": "113200"
  },
  {
    "province": "辽宁省",
    "city": "抚顺市",
    "county": "清原满族自治县",
    "longitude": "124.92",
    "latitude": "42.1",
    "zipCode": "113300"
  },
  {
    "province": "辽宁省",
    "city": "本溪市",
    "county": "本溪市",
    "longitude": "123.77",
    "latitude": "41.3",
    "zipCode": "117000"
  },
  {
    "province": "辽宁省",
    "city": "本溪市",
    "county": "平山区",
    "longitude": "123.77",
    "latitude": "41.3",
    "zipCode": "117000"
  },
  {
    "province": "辽宁省",
    "city": "本溪市",
    "county": "溪湖区",
    "longitude": "123.77",
    "latitude": "41.33",
    "zipCode": "117000"
  },
  {
    "province": "辽宁省",
    "city": "本溪市",
    "county": "明山区",
    "longitude": "123.82",
    "latitude": "41.3",
    "zipCode": "117000"
  },
  {
    "province": "辽宁省",
    "city": "本溪市",
    "county": "南芬区",
    "longitude": "123.73",
    "latitude": "41.1",
    "zipCode": "117000"
  },
  {
    "province": "辽宁省",
    "city": "本溪市",
    "county": "本溪满族自治县",
    "longitude": "124.12",
    "latitude": "41.3",
    "zipCode": "117100"
  },
  {
    "province": "辽宁省",
    "city": "本溪市",
    "county": "桓仁满族自治县",
    "longitude": "125.35",
    "latitude": "41.27",
    "zipCode": "117200"
  },
  {
    "province": "辽宁省",
    "city": "丹东市",
    "county": "丹东市",
    "longitude": "124.38",
    "latitude": "40.13",
    "zipCode": "118000"
  },
  {
    "province": "辽宁省",
    "city": "丹东市",
    "county": "元宝区",
    "longitude": "124.38",
    "latitude": "40.13",
    "zipCode": "118000"
  },
  {
    "province": "辽宁省",
    "city": "丹东市",
    "county": "振兴区",
    "longitude": "124.35",
    "latitude": "40.08",
    "zipCode": "118000"
  },
  {
    "province": "辽宁省",
    "city": "丹东市",
    "county": "振安区",
    "longitude": "124.42",
    "latitude": "40.17",
    "zipCode": "118000"
  },
  {
    "province": "辽宁省",
    "city": "丹东市",
    "county": "宽甸满族自治县",
    "longitude": "124.78",
    "latitude": "40.73",
    "zipCode": "118200"
  },
  {
    "province": "辽宁省",
    "city": "丹东市",
    "county": "东港市",
    "longitude": "124.15",
    "latitude": "39.87",
    "zipCode": "118300"
  },
  {
    "province": "辽宁省",
    "city": "丹东市",
    "county": "凤城市",
    "longitude": "124.07",
    "latitude": "40.45",
    "zipCode": "118100"
  },
  {
    "province": "辽宁省",
    "city": "锦州市",
    "county": "锦州市",
    "longitude": "121.13",
    "latitude": "41.1",
    "zipCode": "121000"
  },
  {
    "province": "辽宁省",
    "city": "锦州市",
    "county": "古塔区",
    "longitude": "121.12",
    "latitude": "41.13",
    "zipCode": "121000"
  },
  {
    "province": "辽宁省",
    "city": "锦州市",
    "county": "凌河区",
    "longitude": "121.15",
    "latitude": "41.12",
    "zipCode": "121000"
  },
  {
    "province": "辽宁省",
    "city": "锦州市",
    "county": "太和区",
    "longitude": "121.1",
    "latitude": "41.1",
    "zipCode": "121011"
  },
  {
    "province": "辽宁省",
    "city": "锦州市",
    "county": "黑山县",
    "longitude": "122.12",
    "latitude": "41.7",
    "zipCode": "121400"
  },
  {
    "province": "辽宁省",
    "city": "锦州市",
    "county": "义县",
    "longitude": "121.23",
    "latitude": "41.53",
    "zipCode": "121100"
  },
  {
    "province": "辽宁省",
    "city": "锦州市",
    "county": "凌海市",
    "longitude": "121.35",
    "latitude": "41.17",
    "zipCode": "121200"
  },
  {
    "province": "辽宁省",
    "city": "营口市",
    "county": "营口市",
    "longitude": "122.23",
    "latitude": "40.67",
    "zipCode": "115000"
  },
  {
    "province": "辽宁省",
    "city": "营口市",
    "county": "站前区",
    "longitude": "122.27",
    "latitude": "40.68",
    "zipCode": "115002"
  },
  {
    "province": "辽宁省",
    "city": "营口市",
    "county": "西市区",
    "longitude": "122.22",
    "latitude": "40.67",
    "zipCode": "115004"
  },
  {
    "province": "辽宁省",
    "city": "营口市",
    "county": "鲅鱼圈区",
    "longitude": "122.12",
    "latitude": "40.27",
    "zipCode": "115007"
  },
  {
    "province": "辽宁省",
    "city": "营口市",
    "county": "老边区",
    "longitude": "122.37",
    "latitude": "40.67",
    "zipCode": "115005"
  },
  {
    "province": "辽宁省",
    "city": "营口市",
    "county": "盖州市",
    "longitude": "122.35",
    "latitude": "40.4",
    "zipCode": "115200"
  },
  {
    "province": "辽宁省",
    "city": "营口市",
    "county": "大石桥市",
    "longitude": "122.5",
    "latitude": "40.65",
    "zipCode": "115100"
  },
  {
    "province": "辽宁省",
    "city": "阜新市",
    "county": "阜新市",
    "longitude": "121.67",
    "latitude": "42.02",
    "zipCode": "123000"
  },
  {
    "province": "辽宁省",
    "city": "阜新市",
    "county": "海州区",
    "longitude": "121.65",
    "latitude": "42.02",
    "zipCode": "123000"
  },
  {
    "province": "辽宁省",
    "city": "阜新市",
    "county": "太平区",
    "longitude": "121.67",
    "latitude": "42.02",
    "zipCode": "123003"
  },
  {
    "province": "辽宁省",
    "city": "阜新市",
    "county": "清河门区",
    "longitude": "121.42",
    "latitude": "41.75",
    "zipCode": "123006"
  },
  {
    "province": "辽宁省",
    "city": "阜新市",
    "county": "细河区",
    "longitude": "121.68",
    "latitude": "42.03",
    "zipCode": "123000"
  },
  {
    "province": "辽宁省",
    "city": "阜新市",
    "county": "阜新蒙古族自治县",
    "longitude": "121.75",
    "latitude": "42.07",
    "zipCode": "123100"
  },
  {
    "province": "辽宁省",
    "city": "阜新市",
    "county": "彰武县",
    "longitude": "122.53",
    "latitude": "42.38",
    "zipCode": "123200"
  },
  {
    "province": "辽宁省",
    "city": "辽阳市",
    "county": "辽阳市",
    "longitude": "123.17",
    "latitude": "41.27",
    "zipCode": "111000"
  },
  {
    "province": "辽宁省",
    "city": "辽阳市",
    "county": "白塔区",
    "longitude": "123.17",
    "latitude": "41.27",
    "zipCode": "111000"
  },
  {
    "province": "辽宁省",
    "city": "辽阳市",
    "county": "文圣区",
    "longitude": "123.18",
    "latitude": "41.27",
    "zipCode": "111000"
  },
  {
    "province": "辽宁省",
    "city": "辽阳市",
    "county": "宏伟区",
    "longitude": "123.2",
    "latitude": "41.2",
    "zipCode": "111000"
  },
  {
    "province": "辽宁省",
    "city": "辽阳市",
    "county": "弓长岭区",
    "longitude": "123.45",
    "latitude": "41.13",
    "zipCode": "111008"
  },
  {
    "province": "辽宁省",
    "city": "辽阳市",
    "county": "太子河区",
    "longitude": "123.18",
    "latitude": "41.25",
    "zipCode": "111000"
  },
  {
    "province": "辽宁省",
    "city": "辽阳市",
    "county": "辽阳县",
    "longitude": "123.07",
    "latitude": "41.22",
    "zipCode": "111200"
  },
  {
    "province": "辽宁省",
    "city": "辽阳市",
    "county": "灯塔市",
    "longitude": "123.33",
    "latitude": "41.42",
    "zipCode": "111300"
  },
  {
    "province": "辽宁省",
    "city": "盘锦市",
    "county": "盘锦市",
    "longitude": "122.07",
    "latitude": "41.12",
    "zipCode": "124000"
  },
  {
    "province": "辽宁省",
    "city": "盘锦市",
    "county": "双台子区",
    "longitude": "122.05",
    "latitude": "41.2",
    "zipCode": "124000"
  },
  {
    "province": "辽宁省",
    "city": "盘锦市",
    "county": "兴隆台区",
    "longitude": "122.07",
    "latitude": "41.12",
    "zipCode": "124010"
  },
  {
    "province": "辽宁省",
    "city": "盘锦市",
    "county": "大洼县",
    "longitude": "122.07",
    "latitude": "40.98",
    "zipCode": "124200"
  },
  {
    "province": "辽宁省",
    "city": "盘锦市",
    "county": "盘山县",
    "longitude": "122.02",
    "latitude": "41.25",
    "zipCode": "124100"
  },
  {
    "province": "辽宁省",
    "city": "铁岭市",
    "county": "铁岭市",
    "longitude": "123.83",
    "latitude": "42.28",
    "zipCode": "112000"
  },
  {
    "province": "辽宁省",
    "city": "铁岭市",
    "county": "银州区",
    "longitude": "123.85",
    "latitude": "42.28",
    "zipCode": "112000"
  },
  {
    "province": "辽宁省",
    "city": "铁岭市",
    "county": "清河区",
    "longitude": "124.15",
    "latitude": "42.53",
    "zipCode": "112003"
  },
  {
    "province": "辽宁省",
    "city": "铁岭市",
    "county": "铁岭县",
    "longitude": "123.83",
    "latitude": "42.3",
    "zipCode": "112600"
  },
  {
    "province": "辽宁省",
    "city": "铁岭市",
    "county": "西丰县",
    "longitude": "124.72",
    "latitude": "42.73",
    "zipCode": "112400"
  },
  {
    "province": "辽宁省",
    "city": "铁岭市",
    "county": "昌图县",
    "longitude": "124.1",
    "latitude": "42.78",
    "zipCode": "112500"
  },
  {
    "province": "辽宁省",
    "city": "铁岭市",
    "county": "调兵山市",
    "longitude": "123.55",
    "latitude": "42.47",
    "zipCode": "112700"
  },
  {
    "province": "辽宁省",
    "city": "铁岭市",
    "county": "开原市",
    "longitude": "124.03",
    "latitude": "42.55",
    "zipCode": "112300"
  },
  {
    "province": "辽宁省",
    "city": "朝阳市",
    "county": "朝阳市",
    "longitude": "120.45",
    "latitude": "41.57",
    "zipCode": "122000"
  },
  {
    "province": "辽宁省",
    "city": "朝阳市",
    "county": "双塔区",
    "longitude": "120.45",
    "latitude": "41.57",
    "zipCode": "122000"
  },
  {
    "province": "辽宁省",
    "city": "朝阳市",
    "county": "龙城区",
    "longitude": "120.43",
    "latitude": "41.6",
    "zipCode": "122000"
  },
  {
    "province": "辽宁省",
    "city": "朝阳市",
    "county": "朝阳县",
    "longitude": "120.47",
    "latitude": "41.58",
    "zipCode": "122000"
  },
  {
    "province": "辽宁省",
    "city": "朝阳市",
    "county": "建平县",
    "longitude": "119.63",
    "latitude": "41.4",
    "zipCode": "122400"
  },
  {
    "province": "辽宁省",
    "city": "朝阳市",
    "county": "北票市",
    "longitude": "120.77",
    "latitude": "41.8",
    "zipCode": "122100"
  },
  {
    "province": "辽宁省",
    "city": "朝阳市",
    "county": "凌源市",
    "longitude": "119.4",
    "latitude": "41.25",
    "zipCode": "122500"
  },
  {
    "province": "辽宁省",
    "city": "葫芦岛市",
    "county": "葫芦岛市",
    "longitude": "120.83",
    "latitude": "40.72",
    "zipCode": "125000"
  },
  {
    "province": "辽宁省",
    "city": "葫芦岛市",
    "county": "连山区",
    "longitude": "120.87",
    "latitude": "40.77",
    "zipCode": "125000"
  },
  {
    "province": "辽宁省",
    "city": "葫芦岛市",
    "county": "龙港区",
    "longitude": "120.93",
    "latitude": "40.72",
    "zipCode": "125003"
  },
  {
    "province": "辽宁省",
    "city": "葫芦岛市",
    "county": "南票区",
    "longitude": "120.75",
    "latitude": "41.1",
    "zipCode": "125027"
  },
  {
    "province": "辽宁省",
    "city": "葫芦岛市",
    "county": "绥中县",
    "longitude": "120.33",
    "latitude": "40.32",
    "zipCode": "125200"
  },
  {
    "province": "辽宁省",
    "city": "葫芦岛市",
    "county": "建昌县",
    "longitude": "119.8",
    "latitude": "40.82",
    "zipCode": "125300"
  },
  {
    "province": "辽宁省",
    "city": "葫芦岛市",
    "county": "兴城市",
    "longitude": "120.72",
    "latitude": "40.62",
    "zipCode": "125100"
  },
  {
    "province": "吉林省",
    "city": "长春市",
    "county": "长春市",
    "longitude": "125.32",
    "latitude": "43.9",
    "zipCode": "130000"
  },
  {
    "province": "吉林省",
    "city": "长春市",
    "county": "南关区",
    "longitude": "125.33",
    "latitude": "43.87",
    "zipCode": "130022"
  },
  {
    "province": "吉林省",
    "city": "长春市",
    "county": "宽城区",
    "longitude": "125.32",
    "latitude": "43.92",
    "zipCode": "130000"
  },
  {
    "province": "吉林省",
    "city": "长春市",
    "county": "朝阳区",
    "longitude": "125.28",
    "latitude": "43.83",
    "zipCode": "130012"
  },
  {
    "province": "吉林省",
    "city": "长春市",
    "county": "二道区",
    "longitude": "125.37",
    "latitude": "43.87",
    "zipCode": "130031"
  },
  {
    "province": "吉林省",
    "city": "长春市",
    "county": "绿园区",
    "longitude": "125.25",
    "latitude": "43.88",
    "zipCode": "130062"
  },
  {
    "province": "吉林省",
    "city": "长春市",
    "county": "双阳区",
    "longitude": "125.67",
    "latitude": "43.52",
    "zipCode": "130600"
  },
  {
    "province": "吉林省",
    "city": "长春市",
    "county": "农安县",
    "longitude": "125.18",
    "latitude": "44.43",
    "zipCode": "130200"
  },
  {
    "province": "吉林省",
    "city": "长春市",
    "county": "九台市",
    "longitude": "125.83",
    "latitude": "44.15",
    "zipCode": "130500"
  },
  {
    "province": "吉林省",
    "city": "长春市",
    "county": "榆树市",
    "longitude": "126.55",
    "latitude": "44.82",
    "zipCode": "130400"
  },
  {
    "province": "吉林省",
    "city": "长春市",
    "county": "德惠市",
    "longitude": "125.7",
    "latitude": "44.53",
    "zipCode": "130300"
  },
  {
    "province": "吉林省",
    "city": "吉林市",
    "county": "吉林市",
    "longitude": "126.55",
    "latitude": "43.83",
    "zipCode": "132000"
  },
  {
    "province": "吉林省",
    "city": "吉林市",
    "county": "昌邑区",
    "longitude": "126.57",
    "latitude": "43.88",
    "zipCode": "132000"
  },
  {
    "province": "吉林省",
    "city": "吉林市",
    "county": "龙潭区",
    "longitude": "126.57",
    "latitude": "43.92",
    "zipCode": "132000"
  },
  {
    "province": "吉林省",
    "city": "吉林市",
    "county": "船营区",
    "longitude": "126.53",
    "latitude": "43.83",
    "zipCode": "132000"
  },
  {
    "province": "吉林省",
    "city": "吉林市",
    "county": "丰满区",
    "longitude": "126.57",
    "latitude": "43.82",
    "zipCode": "132113"
  },
  {
    "province": "吉林省",
    "city": "吉林市",
    "county": "永吉县",
    "longitude": "126.5",
    "latitude": "43.67",
    "zipCode": "132100"
  },
  {
    "province": "吉林省",
    "city": "吉林市",
    "county": "蛟河市",
    "longitude": "127.33",
    "latitude": "43.72",
    "zipCode": "132500"
  },
  {
    "province": "吉林省",
    "city": "吉林市",
    "county": "桦甸市",
    "longitude": "126.73",
    "latitude": "42.97",
    "zipCode": "132400"
  },
  {
    "province": "吉林省",
    "city": "吉林市",
    "county": "舒兰市",
    "longitude": "126.95",
    "latitude": "44.42",
    "zipCode": "132600"
  },
  {
    "province": "吉林省",
    "city": "吉林市",
    "county": "磐石市",
    "longitude": "126.05",
    "latitude": "42.95",
    "zipCode": "132300"
  },
  {
    "province": "吉林省",
    "city": "四平市",
    "county": "四平市",
    "longitude": "124.35",
    "latitude": "43.17",
    "zipCode": "136000"
  },
  {
    "province": "吉林省",
    "city": "四平市",
    "county": "铁西区",
    "longitude": "124.35",
    "latitude": "43.15",
    "zipCode": "136000"
  },
  {
    "province": "吉林省",
    "city": "四平市",
    "county": "铁东区",
    "longitude": "124.38",
    "latitude": "43.17",
    "zipCode": "136001"
  },
  {
    "province": "吉林省",
    "city": "四平市",
    "county": "梨树县",
    "longitude": "124.33",
    "latitude": "43.32",
    "zipCode": "136500"
  },
  {
    "province": "吉林省",
    "city": "四平市",
    "county": "伊通满族自治县",
    "longitude": "125.3",
    "latitude": "43.35",
    "zipCode": "130700"
  },
  {
    "province": "吉林省",
    "city": "四平市",
    "county": "公主岭市",
    "longitude": "124.82",
    "latitude": "43.5",
    "zipCode": "136100"
  },
  {
    "province": "吉林省",
    "city": "四平市",
    "county": "双辽市",
    "longitude": "123.5",
    "latitude": "43.52",
    "zipCode": "136400"
  },
  {
    "province": "吉林省",
    "city": "辽源市",
    "county": "辽源市",
    "longitude": "125.13",
    "latitude": "42.88",
    "zipCode": "136200"
  },
  {
    "province": "吉林省",
    "city": "辽源市",
    "county": "龙山区",
    "longitude": "125.12",
    "latitude": "42.9",
    "zipCode": "136200"
  },
  {
    "province": "吉林省",
    "city": "辽源市",
    "county": "西安区",
    "longitude": "125.15",
    "latitude": "42.92",
    "zipCode": "136201"
  },
  {
    "province": "吉林省",
    "city": "辽源市",
    "county": "东丰县",
    "longitude": "125.53",
    "latitude": "42.68",
    "zipCode": "136300"
  },
  {
    "province": "吉林省",
    "city": "辽源市",
    "county": "东辽县",
    "longitude": "125.0",
    "latitude": "42.92",
    "zipCode": "136600"
  },
  {
    "province": "吉林省",
    "city": "通化市",
    "county": "通化市",
    "longitude": "125.93",
    "latitude": "41.73",
    "zipCode": "134000"
  },
  {
    "province": "吉林省",
    "city": "通化市",
    "county": "东昌区",
    "longitude": "125.95",
    "latitude": "41.73",
    "zipCode": "134000"
  },
  {
    "province": "吉林省",
    "city": "通化市",
    "county": "二道江区",
    "longitude": "126.03",
    "latitude": "41.77",
    "zipCode": "134003"
  },
  {
    "province": "吉林省",
    "city": "通化市",
    "county": "通化县",
    "longitude": "125.75",
    "latitude": "41.68",
    "zipCode": "134100"
  },
  {
    "province": "吉林省",
    "city": "通化市",
    "county": "辉南县",
    "longitude": "126.03",
    "latitude": "42.68",
    "zipCode": "135100"
  },
  {
    "province": "吉林省",
    "city": "通化市",
    "county": "柳河县",
    "longitude": "125.73",
    "latitude": "42.28",
    "zipCode": "135300"
  },
  {
    "province": "吉林省",
    "city": "通化市",
    "county": "梅河口市",
    "longitude": "125.68",
    "latitude": "42.53",
    "zipCode": "135000"
  },
  {
    "province": "吉林省",
    "city": "通化市",
    "county": "集安市",
    "longitude": "126.18",
    "latitude": "41.12",
    "zipCode": "134200"
  },
  {
    "province": "吉林省",
    "city": "白山市",
    "county": "白山市",
    "longitude": "126.42",
    "latitude": "41.93",
    "zipCode": "134300"
  },
  {
    "province": "吉林省",
    "city": "白山市",
    "county": "八道江区",
    "longitude": "126.4",
    "latitude": "41.93",
    "zipCode": "134300"
  },
  {
    "province": "吉林省",
    "city": "白山市",
    "county": "抚松县",
    "longitude": "127.28",
    "latitude": "42.33",
    "zipCode": "134500"
  },
  {
    "province": "吉林省",
    "city": "白山市",
    "county": "靖宇县",
    "longitude": "126.8",
    "latitude": "42.4",
    "zipCode": "135200"
  },
  {
    "province": "吉林省",
    "city": "白山市",
    "county": "长白朝鲜族自治县",
    "longitude": "128.2",
    "latitude": "41.42",
    "zipCode": "134400"
  },
  {
    "province": "吉林省",
    "city": "白山市",
    "county": "临江市",
    "longitude": "126.9",
    "latitude": "41.8",
    "zipCode": "134600"
  },
  {
    "province": "吉林省",
    "city": "松原市",
    "county": "松原市",
    "longitude": "124.82",
    "latitude": "45.13",
    "zipCode": "138000"
  },
  {
    "province": "吉林省",
    "city": "松原市",
    "county": "宁江区",
    "longitude": "124.8",
    "latitude": "45.17",
    "zipCode": "138000"
  },
  {
    "province": "吉林省",
    "city": "松原市",
    "county": "长岭县",
    "longitude": "123.98",
    "latitude": "44.28",
    "zipCode": "131500"
  },
  {
    "province": "吉林省",
    "city": "松原市",
    "county": "乾安县",
    "longitude": "124.02",
    "latitude": "45.02",
    "zipCode": "131400"
  },
  {
    "province": "吉林省",
    "city": "松原市",
    "county": "扶余县",
    "longitude": "126.02",
    "latitude": "44.98",
    "zipCode": "131200"
  },
  {
    "province": "吉林省",
    "city": "白城市",
    "county": "白城市",
    "longitude": "122.83",
    "latitude": "45.62",
    "zipCode": "137000"
  },
  {
    "province": "吉林省",
    "city": "白城市",
    "county": "洮北区",
    "longitude": "122.85",
    "latitude": "45.62",
    "zipCode": "137000"
  },
  {
    "province": "吉林省",
    "city": "白城市",
    "county": "镇赉县",
    "longitude": "123.2",
    "latitude": "45.85",
    "zipCode": "137300"
  },
  {
    "province": "吉林省",
    "city": "白城市",
    "county": "通榆县",
    "longitude": "123.08",
    "latitude": "44.82",
    "zipCode": "137200"
  },
  {
    "province": "吉林省",
    "city": "白城市",
    "county": "洮南市",
    "longitude": "122.78",
    "latitude": "45.33",
    "zipCode": "137100"
  },
  {
    "province": "吉林省",
    "city": "白城市",
    "county": "大安市",
    "longitude": "124.28",
    "latitude": "45.5",
    "zipCode": "131300"
  },
  {
    "province": "吉林省",
    "city": "延边朝鲜族自治州",
    "county": "延边朝鲜族自治州",
    "longitude": "129.5",
    "latitude": "42.88",
    "zipCode": "133000"
  },
  {
    "province": "吉林省",
    "city": "延边朝鲜族自治州",
    "county": "延吉市",
    "longitude": "129.5",
    "latitude": "42.88",
    "zipCode": "133000"
  },
  {
    "province": "吉林省",
    "city": "延边朝鲜族自治州",
    "county": "图们市",
    "longitude": "129.83",
    "latitude": "42.97",
    "zipCode": "133100"
  },
  {
    "province": "吉林省",
    "city": "延边朝鲜族自治州",
    "county": "敦化市",
    "longitude": "128.23",
    "latitude": "43.37",
    "zipCode": "133700"
  },
  {
    "province": "吉林省",
    "city": "延边朝鲜族自治州",
    "county": "珲春市",
    "longitude": "130.37",
    "latitude": "42.87",
    "zipCode": "133300"
  },
  {
    "province": "吉林省",
    "city": "延边朝鲜族自治州",
    "county": "龙井市",
    "longitude": "129.42",
    "latitude": "42.77",
    "zipCode": "133400"
  },
  {
    "province": "吉林省",
    "city": "延边朝鲜族自治州",
    "county": "和龙市",
    "longitude": "129.0",
    "latitude": "42.53",
    "zipCode": "133500"
  },
  {
    "province": "吉林省",
    "city": "延边朝鲜族自治州",
    "county": "汪清县",
    "longitude": "129.75",
    "latitude": "43.32",
    "zipCode": "133200"
  },
  {
    "province": "吉林省",
    "city": "延边朝鲜族自治州",
    "county": "安图县",
    "longitude": "128.9",
    "latitude": "43.12",
    "zipCode": "133600"
  },
  {
    "province": "黑龙江省",
    "city": "哈尔滨市",
    "county": "哈尔滨市",
    "longitude": "126.53",
    "latitude": "45.8",
    "zipCode": "150000"
  },
  {
    "province": "黑龙江省",
    "city": "哈尔滨市",
    "county": "道里区",
    "longitude": "126.62",
    "latitude": "45.77",
    "zipCode": "150010"
  },